geo_longitude,geo_latitude,Unique_ID,Name,City,Neighborhood,Multi_System,System,System_Code,Multi_Line,Lines,Service,Limited_Service,Service_Frequency,Terminus,Connections,Handicap_Accessible,Status,Year_Opened,Web_Link,Name_Link_HTML
-73.976895,40.753175,1701,Grand Central Terminal,"Manhattan (New York City), NY",Midtown Manhattan,FALSE,Metro-North Railroad,MA03,FALSE,"Harlem Line (Metro-North Railroad), Hudon Line (Metro-North Railroad), New Haven Line (Metro-North Railroad)","Danbury Branch (New Haven Line), New Canaan Branch (New Haven Line), Main Branch (New Haven Line)","Harlem Line - False, Hudson Line - False, Danbury Branch (New Haven Line) - False, New Canaan Branch (New Haven Line) - False, Main Branch (New Haven Line) - False","Harlem Line - Constant (>70), Hudson Line - Constant (>70), Danbury Branch (New Haven Line) - Light (<15), New Canaan Branch (New Haven Line) - Medium (<35), Main Branch (New Haven Line) - Constant (>70)",TRUE,Grand Central - 42nd Street (New York City Subway),TRUE,Built,1913,https://en.wikipedia.org/wiki/Grand_Central_Terminal,"<a href=""https://en.wikipedia.org/wiki/Grand_Central_Terminal"" target=""_blank"">Grand Central Terminal</a>"
-73.939125,40.804998,1702,Harlem - 125th Street,"Manhattan (New York City), NY",East Harlem,FALSE,Metro-North Railroad,MA03,TRUE,"Harlem Line (Metro-North Railroad), Hudon Line (Metro-North Railroad), New Haven Line (Metro-North Railroad)","Danbury Branch (New Haven Line), New Canaan Branch (New Haven Line), Main Branch (New Haven Line)","Harlem Line - False, Hudson Line - False, Danbury Branch (New Haven Line) - False, New Canaan Branch (New Haven Line) - False, Main Branch (New Haven Line) - False","Harlem Line - Constant (>70), Hudson Line - Constant (>70), Danbury Branch (New Haven Line) - Light (<15), New Canaan Branch (New Haven Line) - Medium (<35), Main Branch (New Haven Line) - Constant (>70)",FALSE,125th Street (New York City Subway),TRUE,Built,1897,https://en.wikipedia.org/wiki/Harlem–125th_Street_station,"<a href=""https://en.wikipedia.org/wiki/Harlem–125th_Street_station"" target=""_blank"">Harlem - 125th Street</a>"
-73.890462,40.861443,1703,Fordham,"The Bronx (New York City), NY",Fordham,FALSE,Metro-North Railroad,MA03,TRUE,"Harlem Line (Metro-North Railroad), New Haven Line (Metro-North Railroad)",Main Branch (New Haven Line),"Harlem Line - False, Main Branch (New Haven Line) - False","Harlem Line - Heavy (<70), Main Branch (New Haven Line) - Heavy (<70)",FALSE,None,FALSE,Built,1841,https://en.wikipedia.org/wiki/Fordham_station,"<a href=""https://en.wikipedia.org/wiki/Fordham_station"" target=""_blank"">Fordham</a>"
-73.8322,40.912089,1704,Mount Vernon East,"Mount Vernon, NY",Vernon Park,FALSE,Metro-North Railroad,MA03,FALSE,New Haven Line (Metro-North Railroad),Main Branch (New Haven Line),Main Branch (New Haven Line) - False,Heavy (<70),FALSE,None,TRUE,Built,1972,https://en.wikipedia.org/wiki/Mount_Vernon_East_station,"<a href=""https://en.wikipedia.org/wiki/Mount_Vernon_East_station"" target=""_blank"">Mount Vernon East</a>"
-73.80886,40.909985,1705,Pelham,"Pelham, NY",,FALSE,Metro-North Railroad,MA03,FALSE,New Haven Line (Metro-North Railroad),Main Branch (New Haven Line),Main Branch (New Haven Line) - False,Heavy (<70),FALSE,None,FALSE,Built,1893,https://en.wikipedia.org/wiki/Pelham_station,"<a href=""https://en.wikipedia.org/wiki/Pelham_station"" target=""_blank"">Pelham</a>"
-73.784183,40.91139,1706,New Rochelle,"New Rochelle, NY",,FALSE,Metro-North Railroad,MA03,FALSE,New Haven Line (Metro-North Railroad),"Main Branch (New Haven Line), New Canaan Branch (New Haven Line)","Main Branch (New Haven Line) - False, New Canaan Branch (New Haven Line) - True","Main Branch (New Haven Line) - Heavy (<70), New Canaan Branch (New Haven Line) - Minimal (<5)",TRUE,None,TRUE,Built,1887,https://en.wikipedia.org/wiki/New_Rochelle_station,"<a href=""https://en.wikipedia.org/wiki/New_Rochelle_station"" target=""_blank"">New Rochelle</a>"
-73.758944,40.934266,1707,Larchmont,"Larchmont, NY",,FALSE,Metro-North Railroad,MA03,FALSE,New Haven Line (Metro-North Railroad),Main Branch (New Haven Line),Main Branch (New Haven Line) - False,Heavy (<70),FALSE,None,TRUE,Built,1950s,https://en.wikipedia.org/wiki/Larchmont_station,"<a href=""https://en.wikipedia.org/wiki/Larchmont_station"" target=""_blank"">Larchmont</a>"
-73.736477,40.953922,1708,Mamaroneck,"Mamaroneck, NY",,FALSE,Metro-North Railroad,MA03,FALSE,New Haven Line (Metro-North Railroad),Main Branch (New Haven Line),Main Branch (New Haven Line) - False,Heavy (<70),FALSE,None,FALSE,Built,1888,https://en.wikipedia.org/wiki/Mamaroneck_station,"<a href=""https://en.wikipedia.org/wiki/Mamaroneck_station"" target=""_blank"">Mamaroneck</a>"
-73.712088,40.969806,1709,Harrison,"Harrison, NY",,FALSE,Metro-North Railroad,MA03,FALSE,New Haven Line (Metro-North Railroad),Main Branch (New Haven Line),Main Branch (New Haven Line) - False,Heavy (<70),TRUE,None,TRUE,Built,1870,https://en.wikipedia.org/wiki/Harrison_station_(Metro-North),"<a href=""https://en.wikipedia.org/wiki/Harrison_station_(Metro-North)"" target=""_blank"">Harrison</a>"
-73.682352,40.986263,1710,Rye,"Rye, NY",,FALSE,Metro-North Railroad,MA03,FALSE,New Haven Line (Metro-North Railroad),"Main Branch (New Haven Line), New Canaan Branch (New Haven Line)","Main Branch (New Haven Line) - False, New Canaan Branch (New Haven Line) - True","Main Branch (New Haven Line) - Heavy (<70), New Canaan Branch (New Haven Line) - Minimal (<5) (Peak Hours Only)",FALSE,None,TRUE,Built,1928,https://en.wikipedia.org/wiki/Rye_station_(Metro-North),"<a href=""https://en.wikipedia.org/wiki/Rye_station_(Metro-North)"" target=""_blank"">Rye</a>"
-73.663721,41.002061,1711,Port Chester,"Port Chester, NY",,FALSE,Metro-North Railroad,MA03,FALSE,New Haven Line (Metro-North Railroad),"Main Branch (New Haven Line), New Canaan Branch (New Haven Line)","Main Branch (New Haven Line) - False, New Canaan Branch (New Haven Line) - True","Main Branch (New Haven Line) - Heavy (<70), New Canaan Branch (New Haven Line) - Minimal (<5) (Peak Hours Only)",FALSE,None,FALSE,Built,1890,https://en.wikipedia.org/wiki/Port_Chester_station,"<a href=""https://en.wikipedia.org/wiki/Port_Chester_station"" target=""_blank"">Port Chester</a>"
-73.916049,40.825205,1712,Melrose,"The Bronx (New York City), NY",Melrose,FALSE,Metro-North Railroad,MA03,FALSE,Harlem Line (Metro-North Railroad),,FALSE,Medium (<35),FALSE,None,FALSE,Built,,https://en.wikipedia.org/wiki/Melrose_station,"<a href=""https://en.wikipedia.org/wiki/Melrose_station"" target=""_blank"">Melrose</a>"
-73.899859,40.846865,1713,Tremont,"The Bronx (New York City), NY",Tremont,FALSE,Metro-North Railroad,MA03,FALSE,Harlem Line (Metro-North Railroad),,FALSE,Medium (<35),FALSE,None,FALSE,Built,,https://en.wikipedia.org/wiki/Tremont_station_(Metro-North),"<a href=""https://en.wikipedia.org/wiki/Tremont_station_(Metro-North)"" target=""_blank"">Tremont</a>"
-73.88188,40.867328,1714,Botanical Garden,"The Bronx (New York City), NY",Bedford Park,FALSE,Metro-North Railroad,MA03,FALSE,Harlem Line (Metro-North Railroad),,FALSE,Heavy (<70),FALSE,None,TRUE,Built,1893,https://en.wikipedia.org/wiki/Botanical_Garden_station_(Metro-North),"<a href=""https://en.wikipedia.org/wiki/Botanical_Garden_station_(Metro-North)"" target=""_blank"">Botanical Garden</a>"
-73.871006,40.878657,1715,Williams Bridge,"The Bronx (New York City), NY",Williamsbridge,FALSE,Metro-North Railroad,MA03,FALSE,Harlem Line (Metro-North Railroad),,FALSE,Heavy (<70),FALSE,None,FALSE,Built,,https://en.wikipedia.org/wiki/Williams_Bridge_station,"<a href=""https://en.wikipedia.org/wiki/Williams_Bridge_station"" target=""_blank"">Williams Bridge</a>"
-73.862632,40.895611,1716,Woodlawn,"The Bronx (New York City), NY",Woodlawn,FALSE,Metro-North Railroad,MA03,FALSE,Harlem Line (Metro-North Railroad),,FALSE,Heavy (<70),FALSE,None,FALSE,Built,,https://en.wikipedia.org/wiki/Woodlawn_station_(Metro-North),"<a href=""https://en.wikipedia.org/wiki/Woodlawn_station_(Metro-North)"" target=""_blank"">Woodlawn</a>"
-73.855563,40.906107,1717,Wakefield,"The Bronx (New York City), NY",Wakefield,FALSE,Metro-North Railroad,MA03,FALSE,Harlem Line (Metro-North Railroad),,FALSE,Heavy (<70),FALSE,None,FALSE,Built,1976,https://en.wikipedia.org/wiki/Wakefield_station_(Metro-North),"<a href=""https://en.wikipedia.org/wiki/Wakefield_station_(Metro-North)"" target=""_blank"">Wakefield</a>"
-73.850533,40.91277,1718,Mount Vernon West,"Mount Vernon, NY",West Mount Vernon,FALSE,Metro-North Railroad,MA03,FALSE,Harlem Line (Metro-North Railroad),,FALSE,Heavy (<70),TRUE,None,TRUE,Built,,https://en.wikipedia.org/wiki/Mount_Vernon_West_station,"<a href=""https://en.wikipedia.org/wiki/Mount_Vernon_West_station"" target=""_blank"">Mount Vernon West</a>"
-73.841021,40.925165,1719,Fleetwood,"Mount Vernon, NY",Fleetwood,FALSE,Metro-North Railroad,MA03,FALSE,Harlem Line (Metro-North Railroad),,FALSE,Heavy (<70),FALSE,None,TRUE,Built,1924,https://en.wikipedia.org/wiki/Fleetwood_station,"<a href=""https://en.wikipedia.org/wiki/Fleetwood_station"" target=""_blank"">Fleetwood</a>"
-73.835003,40.941128,1720,Bronxville,"Eastchester, NY",Bronxville,FALSE,Metro-North Railroad,MA03,FALSE,Harlem Line (Metro-North Railroad),,FALSE,Heavy (<70),FALSE,None,TRUE,Built,1916,https://en.wikipedia.org/wiki/Bronxville_station,"<a href=""https://en.wikipedia.org/wiki/Bronxville_station"" target=""_blank"">Bronxville</a>"
-73.828744,40.950458,1721,Tuckahoe,"Eastchester, NY",Tuckahoe,FALSE,Metro-North Railroad,MA03,FALSE,Harlem Line (Metro-North Railroad),,FALSE,Heavy (<70),FALSE,None,TRUE,Built,1901,https://en.wikipedia.org/wiki/Tuckahoe_station,"<a href=""https://en.wikipedia.org/wiki/Tuckahoe_station"" target=""_blank"">Tuckahoe</a>"
-73.821108,40.958803,1722,Crestwood,"Eastchester, NY",Tuckahoe,FALSE,Metro-North Railroad,MA03,FALSE,Harlem Line (Metro-North Railroad),,FALSE,Heavy (<70),TRUE,None,TRUE,Built,1901,https://en.wikipedia.org/wiki/Crestwood_station,"<a href=""https://en.wikipedia.org/wiki/Crestwood_station"" target=""_blank"">Crestwood</a>"
-73.808313,40.990462,1723,Scarsdale,"Scarsdale, NY",,FALSE,Metro-North Railroad,MA03,FALSE,Harlem Line (Metro-North Railroad),,FALSE,Heavy (<70),FALSE,None,TRUE,Built,1904,https://en.wikipedia.org/wiki/Scarsdale_station,"<a href=""https://en.wikipedia.org/wiki/Scarsdale_station"" target=""_blank"">Scarsdale</a>"
-73.795778,41.010812,1724,Hartsdale,"Greenburgh, NY",Hartsdale,FALSE,Metro-North Railroad,MA03,FALSE,Harlem Line (Metro-North Railroad),,FALSE,Heavy (<70),TRUE,None,TRUE,Built,1915,https://en.wikipedia.org/wiki/Hartsdale_station,"<a href=""https://en.wikipedia.org/wiki/Hartsdale_station"" target=""_blank"">Hartsdale</a>"
-73.775128,41.033272,1725,White Plains,"White Plains, NY",,FALSE,Metro-North Railroad,MA03,FALSE,Harlem Line (Metro-North Railroad),,FALSE,Constant (>70),FALSE,None,TRUE,Built,1987,https://en.wikipedia.org/wiki/White_Plains_station,"<a href=""https://en.wikipedia.org/wiki/White_Plains_station"" target=""_blank"">White Plains</a>"
-73.772777,41.050216,1726,North White Plains,"White Plains, NY",,FALSE,Metro-North Railroad,MA03,FALSE,Harlem Line (Metro-North Railroad),,FALSE,Constant (>70),TRUE,None,TRUE,Built,1972,https://en.wikipedia.org/wiki/North_White_Plains_station,"<a href=""https://en.wikipedia.org/wiki/North_White_Plains_station"" target=""_blank"">North White Plains</a>"
-73.774357,41.073811,1727,Valhalla,"Mount Pleasant, NY",Valhalla,FALSE,Metro-North Railroad,MA03,FALSE,Harlem Line (Metro-North Railroad),,FALSE,Medium (<35),FALSE,None,TRUE,Built,1890,https://en.wikipedia.org/wiki/Valhalla_station,"<a href=""https://en.wikipedia.org/wiki/Valhalla_station"" target=""_blank"">Valhalla</a>"
-73.793814,41.095854,1728,Mount Pleasant,"Mount Pleasant, NY",Hawthorne,FALSE,Metro-North Railroad,MA03,FALSE,Harlem Line (Metro-North Railroad),,FALSE,Minimal (<5),FALSE,None,FALSE,Built,,https://en.wikipedia.org/wiki/Mount_Pleasant_station_(Metro-North),"<a href=""https://en.wikipedia.org/wiki/Mount_Pleasant_station_(Metro-North)"" target=""_blank"">Mount Pleasant</a>"
-73.796005,41.109314,1729,Hawthorne,"Mount Pleasant, NY",Hawthorne,FALSE,Metro-North Railroad,MA03,FALSE,Harlem Line (Metro-North Railroad),,FALSE,Heavy (<70),FALSE,None,TRUE,Built,1983,https://en.wikipedia.org/wiki/Hawthorne_station_(Metro-North),"<a href=""https://en.wikipedia.org/wiki/Hawthorne_station_(Metro-North)"" target=""_blank"">Hawthorne</a>"
-73.792253,41.134197,1730,Pleasantville,"Mount Pleasant, NY",Pleasantville,FALSE,Metro-North Railroad,MA03,FALSE,Harlem Line (Metro-North Railroad),,FALSE,Heavy (<70),FALSE,None,TRUE,Built,1905,https://en.wikipedia.org/wiki/Pleasantville_station,"<a href=""https://en.wikipedia.org/wiki/Pleasantville_station"" target=""_blank"">Pleasantville</a>"
-73.774942,41.158026,1731,Chappaqua,"New Castle, NY",Chappaqua,FALSE,Metro-North Railroad,MA03,FALSE,Harlem Line (Metro-North Railroad),,FALSE,Heavy (<70),FALSE,None,TRUE,Built,1902,https://en.wikipedia.org/wiki/Chappaqua_station,"<a href=""https://en.wikipedia.org/wiki/Chappaqua_station"" target=""_blank"">Chappaqua</a>"
-73.729719,41.208492,1732,Mount Kisco,"Mount Kisco, NY",,FALSE,Metro-North Railroad,MA03,FALSE,Harlem Line (Metro-North Railroad),,FALSE,Heavy (<70),TRUE,None,TRUE,Built,1910,https://en.wikipedia.org/wiki/Mount_Kisco_station,"<a href=""https://en.wikipedia.org/wiki/Mount_Kisco_station"" target=""_blank"">Mount Kisco</a>"
-73.700293,41.237107,1733,Bedford Hills,"Bedford, NY",Bedford Hills,FALSE,Metro-North Railroad,MA03,FALSE,Harlem Line (Metro-North Railroad),,FALSE,Medium (<35),FALSE,None,TRUE,Built,,https://en.wikipedia.org/wiki/Bedford_Hills_station,"<a href=""https://en.wikipedia.org/wiki/Bedford_Hills_station"" target=""_blank"">Bedford Hills</a>"
-73.68403,41.2598,1734,Katonah,"Bedford, NY",Katonah,FALSE,Metro-North Railroad,MA03,FALSE,Harlem Line (Metro-North Railroad),,FALSE,Heavy (<70),FALSE,None,TRUE,Built,1910,https://en.wikipedia.org/wiki/Katonah_station,"<a href=""https://en.wikipedia.org/wiki/Katonah_station"" target=""_blank"">Katonah</a>"
-73.677676,41.294111,1735,Goldens Bridge,"Lewisboro, NY",Goldens Bridge,FALSE,Metro-North Railroad,MA03,FALSE,Harlem Line (Metro-North Railroad),,FALSE,Heavy (<70),FALSE,None,TRUE,Built,1984,https://en.wikipedia.org/wiki/Goldens_Bridge_station,"<a href=""https://en.wikipedia.org/wiki/Goldens_Bridge_station"" target=""_blank"">Goldens Bridge</a>"
-73.658854,41.325482,1736,Purdy's,"North Salem, NY",Purdy's,FALSE,Metro-North Railroad,MA03,FALSE,Harlem Line (Metro-North Railroad),,FALSE,Medium (<35),FALSE,None,TRUE,Built,,https://en.wikipedia.org/wiki/Purdy%27s_station,"<a href=""https://en.wikipedia.org/wiki/Purdy%27s_station"" target=""_blank"">Purdy's</a>"
-73.662173,41.348004,1737,Croton Falls,"North Salem, NY",Croton Falls,FALSE,Metro-North Railroad,MA03,FALSE,Harlem Line (Metro-North Railroad),,FALSE,Medium (<35),FALSE,None,TRUE,Built,1907,https://en.wikipedia.org/wiki/Croton_Falls_station,"<a href=""https://en.wikipedia.org/wiki/Croton_Falls_station"" target=""_blank"">Croton Falls</a>"
-73.619937,41.394341,1738,Brewster,"Southeast, NY",Brewster,FALSE,Metro-North Railroad,MA03,FALSE,Harlem Line (Metro-North Railroad),,FALSE,Heavy (<70),FALSE,None,TRUE,Built,1931,https://en.wikipedia.org/wiki/Brewster_station,"<a href=""https://en.wikipedia.org/wiki/Brewster_station"" target=""_blank"">Brewster</a>"
-73.62308,41.413315,1739,Southeast,"Southeast, NY",North Brewster,FALSE,Metro-North Railroad,MA03,FALSE,Harlem Line (Metro-North Railroad),,FALSE,Heavy (<70),TRUE,None,TRUE,Built,1980,https://en.wikipedia.org/wiki/Southeast_station,"<a href=""https://en.wikipedia.org/wiki/Southeast_station"" target=""_blank"">Southeast</a>"
-73.604196,41.511751,1740,Patterson,"Patterson, NY",,FALSE,Metro-North Railroad,MA03,FALSE,Harlem Line (Metro-North Railroad),,TRUE,Light (<15),FALSE,None,TRUE,Built,,https://en.wikipedia.org/wiki/Patterson_station_(Metro-North),"<a href=""https://en.wikipedia.org/wiki/Patterson_station_(Metro-North)"" target=""_blank"">Patterson</a>"
-73.600229,41.564804,1741,Pawling,"Pawling, NY",,FALSE,Metro-North Railroad,MA03,FALSE,Harlem Line (Metro-North Railroad),,TRUE,Light (<15),FALSE,None,TRUE,Built,,https://en.wikipedia.org/wiki/Pawling_station,"<a href=""https://en.wikipedia.org/wiki/Pawling_station"" target=""_blank"">Pawling</a>"
-73.588085,41.592839,1742,Appalacian Trail,"Pawling, NY",,FALSE,Metro-North Railroad,MA03,FALSE,Harlem Line (Metro-North Railroad),,TRUE,None (<1) (Weekends Only),FALSE,None,FALSE,Built,1990,https://en.wikipedia.org/wiki/Appalachian_Trail_station,"<a href=""https://en.wikipedia.org/wiki/Appalachian_Trail_station"" target=""_blank"">Appalacian Trail</a>"
-73.571706,41.637378,1743,Harlem Valley - Wingdale,"Dover, NY",Wingdale,FALSE,Metro-North Railroad,MA03,FALSE,Harlem Line (Metro-North Railroad),,TRUE,Light (<15),FALSE,None,TRUE,Built,1977,https://en.wikipedia.org/wiki/Harlem_Valley–Wingdale_station,"<a href=""https://en.wikipedia.org/wiki/Harlem_Valley–Wingdale_station"" target=""_blank"">Harlem Valley - Wingdale</a>"
-73.576196,41.742664,1744,Dover Plains,"Dover, NY",Dover Plains,FALSE,Metro-North Railroad,MA03,FALSE,Harlem Line (Metro-North Railroad),,TRUE,Light (<15),FALSE,None,TRUE,Built,,https://en.wikipedia.org/wiki/Dover_Plains_station,"<a href=""https://en.wikipedia.org/wiki/Dover_Plains_station"" target=""_blank"">Dover Plains</a>"
-73.559029,41.779528,1745,Tenmile River,"Amenia, NY",,FALSE,Metro-North Railroad,MA03,FALSE,Harlem Line (Metro-North Railroad),,TRUE,Light (<15),FALSE,None,TRUE,Built,2000,https://en.wikipedia.org/wiki/Tenmile_River_station,"<a href=""https://en.wikipedia.org/wiki/Tenmile_River_station"" target=""_blank"">Tenmile River</a>"
-73.562307,41.814862,1746,Wassaic,"Amenia, NY",Wassaic,FALSE,Metro-North Railroad,MA03,FALSE,Harlem Line (Metro-North Railroad),,TRUE,Light (<15),TRUE,None,TRUE,Built,2000,https://en.wikipedia.org/wiki/Wassaic_station,"<a href=""https://en.wikipedia.org/wiki/Wassaic_station"" target=""_blank"">Wassaic</a>"
-73.930241,40.825651,1747,Yankees - East 153rd Street,"The Bronx (New York City), NY",Concourse,FALSE,Metro-North Railroad,MA03,FALSE,Hudson Line (Metro-North Railroad),,FALSE,Medium (<35),FALSE,None,TRUE,Built,2009,https://en.wikipedia.org/wiki/Yankees–East_153rd_Street_station,"<a href=""https://en.wikipedia.org/wiki/Yankees–East_153rd_Street_station"" target=""_blank"">Yankees - East 153rd Street</a>"
-73.91994,40.85394,1748,Morris Heights,"The Bronx (New York City), NY",Morris Heights,FALSE,Metro-North Railroad,MA03,FALSE,Hudson Line (Metro-North Railroad),,FALSE,Medium (<35),FALSE,None,TRUE,Built,,https://en.wikipedia.org/wiki/Morris_Heights_station,"<a href=""https://en.wikipedia.org/wiki/Morris_Heights_station"" target=""_blank"">Morris Heights</a>"
-73.913696,40.861732,1749,University Heights,"The Bronx (New York City), NY",University Heights,FALSE,Metro-North Railroad,MA03,FALSE,Hudson Line (Metro-North Railroad),,FALSE,Medium (<35),FALSE,None,TRUE,Built,1920s,https://en.wikipedia.org/wiki/University_Heights_station,"<a href=""https://en.wikipedia.org/wiki/University_Heights_station"" target=""_blank"">University Heights</a>"
-73.911556,40.874537,1750,Marble Hill,"Manhattan (New York City), NY",Marble Hill,FALSE,Metro-North Railroad,MA03,FALSE,Hudson Line (Metro-North Railroad),,FALSE,Heavy (<70),FALSE,None,FALSE,Built,1906,https://en.wikipedia.org/wiki/Marble_Hill_station,"<a href=""https://en.wikipedia.org/wiki/Marble_Hill_station"" target=""_blank"">Marble Hill</a>"
-73.922093,40.878768,1751,Spuyten Duyvil,"The Bronx (New York City), NY",Spuyten Duyvil,FALSE,Metro-North Railroad,MA03,FALSE,Hudson Line (Metro-North Railroad),,FALSE,Heavy (<70),FALSE,None,TRUE,Built,,https://en.wikipedia.org/wiki/Spuyten_Duyvil_station,"<a href=""https://en.wikipedia.org/wiki/Spuyten_Duyvil_station"" target=""_blank"">Spuyten Duyvil</a>"
-73.91361,40.904276,1752,Riverdale,"The Bronx (New York City), NY",Riverdale,FALSE,Metro-North Railroad,MA03,FALSE,Hudson Line (Metro-North Railroad),,FALSE,Heavy (<70),FALSE,None,TRUE,Built,,https://en.wikipedia.org/wiki/Riverdale_station_(Metro-North),"<a href=""https://en.wikipedia.org/wiki/Riverdale_station_(Metro-North)"" target=""_blank"">Riverdale</a>"
-73.905043,40.923614,1753,Ludlow,"Yonkers, NY",Ludlow Park,FALSE,Metro-North Railroad,MA03,FALSE,Hudson Line (Metro-North Railroad),,FALSE,Medium (<35),FALSE,None,TRUE,Built,,https://en.wikipedia.org/wiki/Ludlow_station_(Metro-North),"<a href=""https://en.wikipedia.org/wiki/Ludlow_station_(Metro-North)"" target=""_blank"">Ludlow</a>"
-73.902368,40.935586,1754,Yonkers,"Yonkers, NY",Getty Square,TRUE,"Amtrak, Metro-North Railroad","MA01, MA03",TRUE,"Hudson Line (Metro-North Railroad), Ethan Allen Express (Amtrak), Adirondack (Amtrak), Empire Service (Amtrak), Maple Leaf (Amtrak), Lake Shore Limited (Amtrak)",New York City Service (Lake Shore Limited),"Hudson Line - False, Ethan Allen Express - True, Adirondack - True, Empire Service - False, Maple Leaf - True, Lake Shore Limited - True","Hudson Line - Heavy (<70), Ethan Allen Express - Minimal (<5), Adirondack - Minimal (<5), Empire Service - Light (<15), Maple Leaf - Minimal (<5), Lake Shore Limited - Minimal (<5)",FALSE,None,TRUE,Built,1911,https://en.wikipedia.org/wiki/Yonkers_station,"<a href=""https://en.wikipedia.org/wiki/Yonkers_station"" target=""_blank"">Yonkers</a>"
-73.898736,40.950554,1755,Glenwood,"Yonkers, NY",Glenwood,FALSE,Metro-North Railroad,MA03,FALSE,Hudson Line (Metro-North Railroad),,FALSE,Medium (<35),FALSE,None,TRUE,Built,,https://en.wikipedia.org/wiki/Glenwood_station_(Metro-North),"<a href=""https://en.wikipedia.org/wiki/Glenwood_station_(Metro-North)"" target=""_blank"">Glenwood</a>"
-73.889058,40.972907,1756,Greystone,"Yonkers, NY",Greystone,FALSE,Metro-North Railroad,MA03,FALSE,Hudson Line (Metro-North Railroad),,FALSE,Heavy (<70),TRUE,None,TRUE,Built,1899,https://en.wikipedia.org/wiki/Greystone_station,"<a href=""https://en.wikipedia.org/wiki/Greystone_station"" target=""_blank"">Greystone</a>"
-73.884276,40.99468,1757,Hastings-on-Hudson,"Greenburgh, NY",Hastings-on-Hudson,FALSE,Metro-North Railroad,MA03,FALSE,Hudson Line (Metro-North Railroad),,FALSE,Heavy (<70),FALSE,None,TRUE,Built,1910,https://en.wikipedia.org/wiki/Hastings-on-Hudson_station,"<a href=""https://en.wikipedia.org/wiki/Hastings-on-Hudson_station"" target=""_blank"">Hastings-on-Hudson</a>"
-73.879278,41.012392,1758,Dobbs Ferry,"Greenburgh, NY",Dobbs Ferry,FALSE,Metro-North Railroad,MA03,FALSE,Hudson Line (Metro-North Railroad),,FALSE,Heavy (<70),FALSE,None,TRUE,Built,1889,https://en.wikipedia.org/wiki/Dobbs_Ferry_station,"<a href=""https://en.wikipedia.org/wiki/Dobbs_Ferry_station"" target=""_blank"">Dobbs Ferry</a>"
-73.87652,41.027088,1759,Ardsley-on-Hudson,"Greenburgh, NY",Irvington,FALSE,Metro-North Railroad,MA03,FALSE,Hudson Line (Metro-North Railroad),,FALSE,Medium (<35),FALSE,None,TRUE,Built,,https://en.wikipedia.org/wiki/Ardsley-on-Hudson_station,"<a href=""https://en.wikipedia.org/wiki/Ardsley-on-Hudson_station"" target=""_blank"">Ardsley-on-Hudson</a>"
-73.872788,41.040493,1760,Irvington,"Greenburgh, NY",Irvington,FALSE,Metro-North Railroad,MA03,FALSE,Hudson Line (Metro-North Railroad),,FALSE,Heavy (<70),TRUE,None,TRUE,Built,1889,https://en.wikipedia.org/wiki/Irvington_station_(Metro-North),"<a href=""https://en.wikipedia.org/wiki/Irvington_station_(Metro-North)"" target=""_blank"">Irvington</a>"
-73.864727,41.076582,1761,Tarrytown,"Greenburgh, NY",Tarrytown,FALSE,Metro-North Railroad,MA03,FALSE,Hudson Line (Metro-North Railroad),,FALSE,Heavy (<70),TRUE,None,TRUE,Built,1925,https://en.wikipedia.org/wiki/Tarrytown_station,"<a href=""https://en.wikipedia.org/wiki/Tarrytown_station"" target=""_blank"">Tarrytown</a>"
-73.869546,41.094491,1762,Philipse Manor,"Mount Pleasant, NY",Sleepy Hollow,FALSE,Metro-North Railroad,MA03,FALSE,Hudson Line (Metro-North Railroad),,FALSE,Medium (<35),FALSE,None,TRUE,Built,1911,https://en.wikipedia.org/wiki/Philipse_Manor_station,"<a href=""https://en.wikipedia.org/wiki/Philipse_Manor_station"" target=""_blank"">Philipse Manor</a>"
-73.866056,41.136841,1763,Scarborough,"Ossining, NY",Scarborough,FALSE,Metro-North Railroad,MA03,FALSE,Hudson Line (Metro-North Railroad),,FALSE,Medium (<35),FALSE,None,TRUE,Built,1899,https://en.wikipedia.org/wiki/Scarborough_station_(Metro-North),"<a href=""https://en.wikipedia.org/wiki/Scarborough_station_(Metro-North)"" target=""_blank"">Scarborough</a>"
-73.868951,41.157402,1764,Ossining,"Ossining, NY",,FALSE,Metro-North Railroad,MA03,FALSE,Hudson Line (Metro-North Railroad),,FALSE,Heavy (<70),TRUE,None,TRUE,Built,1914,https://en.wikipedia.org/wiki/Ossining_station,"<a href=""https://en.wikipedia.org/wiki/Ossining_station"" target=""_blank"">Ossining</a>"
-73.882494,41.189959,1765,Croton - Harmon,"Cortlandt, NY",Croton-on-Hudson,TRUE,"Amtrak, Metro-North Railroad","MA01, MA03",TRUE,"Hudson Line (Metro-North Railroad), Ethan Allen Express (Amtrak), Adirondack (Amtrak), Empire Service (Amtrak), Maple Leaf (Amtrak), Lake Shore Limited (Amtrak)",New York City Service (Lake Shore Limited),"Hudson Line - False, Ethan Allen Express - True, Adirondack - True, Empire Service - False, Maple Leaf - True, Lake Shore Limited - True","Hudson Line - Constant (>70), Ethan Allen Express - Minimal (<5), Adirondack - Minimal (<5), Empire Service - Light (<15), Maple Leaf - Minimal (<5), Lake Shore Limited - Minimal (<5)",TRUE,None,TRUE,Built,,https://en.wikipedia.org/wiki/Croton–Harmon_station,"<a href=""https://en.wikipedia.org/wiki/Croton–Harmon_station"" target=""_blank"">Croton - Harmon</a>"
-73.922409,41.246572,1766,Cortlandt,"Cortlandt, NY",,FALSE,Metro-North Railroad,MA03,FALSE,Hudson Line (Metro-North Railroad),,FALSE,Medium (<35),FALSE,None,TRUE,Built,1996,https://en.wikipedia.org/wiki/Cortlandt_station,"<a href=""https://en.wikipedia.org/wiki/Cortlandt_station"" target=""_blank"">Cortlandt</a>"
-73.93103,41.284822,1767,Peeksill,"Peeksill, NY",,FALSE,Metro-North Railroad,MA03,FALSE,Hudson Line (Metro-North Railroad),,FALSE,Medium (<35),FALSE,None,TRUE,Built,1874,https://en.wikipedia.org/wiki/Peekskill_station,"<a href=""https://en.wikipedia.org/wiki/Peekskill_station"" target=""_blank"">Peeksill</a>"
-73.97004,41.332566,1768,Manitou,"Philipstown, NY",,FALSE,Metro-North Railroad,MA03,FALSE,Hudson Line (Metro-North Railroad),,TRUE,None (<1) (Weekends Only),FALSE,None,FALSE,Built,,https://en.wikipedia.org/wiki/Manitou_station,"<a href=""https://en.wikipedia.org/wiki/Manitou_station"" target=""_blank"">Manitou</a>"
-73.947124,41.380815,1769,Garrison,"Philipstown, NY",Garrison,FALSE,Metro-North Railroad,MA03,FALSE,Hudson Line (Metro-North Railroad),,FALSE,Medium (<35),FALSE,None,TRUE,Built,1892,https://en.wikipedia.org/wiki/Garrison_station_(Metro-North),"<a href=""https://en.wikipedia.org/wiki/Garrison_station_(Metro-North)"" target=""_blank"">Garrison</a>"
-73.957873,41.415422,1770,Cold Spring,"Philipstown, NY",Cold Spring,FALSE,Metro-North Railroad,MA03,FALSE,Hudson Line (Metro-North Railroad),,FALSE,Medium (<35),FALSE,None,TRUE,Built,1893,https://en.wikipedia.org/wiki/Cold_Spring_station,"<a href=""https://en.wikipedia.org/wiki/Cold_Spring_station"" target=""_blank"">Cold Spring</a>"
-73.982166,41.450257,1771,Breakneck Ridge,,,FALSE,Metro-North Railroad,MA03,FALSE,Hudson Line (Metro-North Railroad),,TRUE,None (<1) (Weekends Only),FALSE,None,FALSE,Built,,https://en.wikipedia.org/wiki/Breakneck_Ridge_station,"<a href=""https://en.wikipedia.org/wiki/Breakneck_Ridge_station"" target=""_blank"">Breakneck Ridge</a>"
-73.984446,41.505744,1772,Beacon,"Beacon, NY",,FALSE,Metro-North Railroad,MA03,FALSE,Hudson Line (Metro-North Railroad),,FALSE,Medium (<35),FALSE,None,TRUE,Built,1915,https://en.wikipedia.org/wiki/Beacon_station,"<a href=""https://en.wikipedia.org/wiki/Beacon_station"" target=""_blank"">Beacon</a>"
-73.947301,41.586647,1773,New Hamburg,"Wappinger, NY",Wappingers Falls,FALSE,Metro-North Railroad,MA03,FALSE,Hudson Line (Metro-North Railroad),,FALSE,Medium (<35),FALSE,None,TRUE,Built,,https://en.wikipedia.org/wiki/New_Hamburg_station,"<a href=""https://en.wikipedia.org/wiki/New_Hamburg_station"" target=""_blank"">New Hamburg</a>"
-73.937729,41.707095,1774,Poughkeepsie,"Poughkeepsie, NY",,TRUE,"Amtrak, Metro-North Railroad","MA01, MA03",TRUE,"Hudson Line (Metro-North Railroad), Ethan Allen Express (Amtrak), Adirondack (Amtrak), Empire Service (Amtrak), Maple Leaf (Amtrak), Lake Shore Limited (Amtrak)",New York City Service (Lake Shore Limited),"Hudson Line - False, Ethan Allen Express - True, Adirondack - True, Empire Service - False, Maple Leaf - True, Lake Shore Limited - True","Hudson Line - Medium (<35), Ethan Allen Express - Minimal (<5), Adirondack - Minimal (<5), Empire Service - Light (<15), Maple Leaf - Minimal (<5), Lake Shore Limited - Minimal (<5)",TRUE,None,TRUE,Built,1918,https://en.wikipedia.org/wiki/Poughkeepsie_station,"<a href=""https://en.wikipedia.org/wiki/Poughkeepsie_station"" target=""_blank"">Poughkeepsie</a>"
-73.82315,40.860504,1775,Co-op City (Planned),"The Bronx (New York City), NY",Co-op City,FALSE,Metro-North Railroad,MA03,FALSE,New Haven Line (Metro-North Railroad),,,,FALSE,None,,Planned,,,Co-op City (Planned)
-73.843932,40.849712,1776,Morris Park (Planned),"The Bronx (New York City), NY",Morris Park,FALSE,Metro-North Railroad,MA03,FALSE,New Haven Line (Metro-North Railroad),,,,FALSE,None,,Planned,,,Morris Park (Planned)
-73.862177,40.841901,1777,Parkchester / Van Nest (Planned),"The Bronx (New York City), NY","Parkchester, Van Nest",FALSE,Metro-North Railroad,MA03,FALSE,New Haven Line (Metro-North Railroad),,,,FALSE,None,,Planned,,,Parkchester / Van Nest (Planned)
-73.887916,40.821311,1778,Hunts Point (Planned),"The Bronx (New York City), NY",Hunts Point,FALSE,Metro-North Railroad,MA03,FALSE,New Haven Line (Metro-North Railroad),,,,FALSE,None,,Planned,,,Hunts Point (Planned)
-73.898549,40.889325,1801,Van Cortlandt Park - 242nd Street,"The Bronx (New York City), NY",Riverdale,FALSE,NYC Subway,MA02,FALSE,1 Broadway - Seventh Avenue Local (NYC Subway),,FALSE,Constant (>70),TRUE,None,FALSE,Built,1908,,Van Cortlandt Park - 242nd Street
-73.900691,40.884961,1802,238th Street,"The Bronx (New York City), NY",Riverdale,FALSE,NYC Subway,MA02,FALSE,1 Broadway - Seventh Avenue Local (NYC Subway),,FALSE,Constant (>70),FALSE,None,FALSE,Built,1908,,238th Street
-73.904754,40.878947,1803,231st Street,"The Bronx (New York City), NY",Riverdale,FALSE,NYC Subway,MA02,FALSE,1 Broadway - Seventh Avenue Local (NYC Subway),,FALSE,Constant (>70),FALSE,None,TRUE,Built,1907,,231st Street
-73.910222,40.874304,1804,Marble Hill - 225th Street,"Manhattan (New York City), NY",Marble Hill,FALSE,NYC Subway,MA02,FALSE,1 Broadway - Seventh Avenue Local (NYC Subway),,FALSE,Constant (>70),FALSE,None,FALSE,Built,1907,,Marble Hill - 225th Street
-73.915206,40.869523,1805,215th Street,"Manhattan (New York City), NY",Inwood,FALSE,NYC Subway,MA02,FALSE,1 Broadway - Seventh Avenue Local (NYC Subway),,FALSE,Constant (>70),FALSE,None,FALSE,Built,1906,,215th Street
-73.918981,40.864372,1806,207th Street,"Manhattan (New York City), NY",Inwood,FALSE,NYC Subway,MA02,FALSE,1 Broadway - Seventh Avenue Local (NYC Subway),,FALSE,Constant (>70),FALSE,None,FALSE,Built,1907,,207th Street
-73.925261,40.860931,1807,Dyckman Street,"Manhattan (New York City), NY",Inwood,FALSE,NYC Subway,MA02,FALSE,1 Broadway - Seventh Avenue Local (NYC Subway),,FALSE,Constant (>70),FALSE,None,Partial,Built,1906,,Dyckman Street
-73.929376,40.855257,1808,191st Street,"Manhattan (New York City), NY",Washington Heights,FALSE,NYC Subway,MA02,FALSE,1 Broadway - Seventh Avenue Local (NYC Subway),,FALSE,Constant (>70),FALSE,None,FALSE,Built,1911,,191st Street
-73.933744,40.849322,1809,181st Street,"Manhattan (New York City), NY",Washington Heights,FALSE,NYC Subway,MA02,FALSE,1 Broadway - Seventh Avenue Local (NYC Subway),,FALSE,Constant (>70),FALSE,None,FALSE,Built,1906,,181st Street
-73.939369,40.841645,1810,168th Street,"Manhattan (New York City), NY",Washington Heights,FALSE,NYC Subway,MA02,TRUE,"1 Broadway - Seventh Avenue Local (NYC Subway), A Eighth Avenue Express (NYC Subway), C Eighth Avenue Local (NYC Subway)",,"1 - False, A - False, C - False","1 - Constant (>70), A - Constant (>70), C - Constant (>70)",TRUE,None,Partial,Built,1906,,168th Street
-73.944923,40.834041,1811,157th Street,"Manhattan (New York City), NY",Washington Heights,FALSE,NYC Subway,MA02,FALSE,1 Broadway - Seventh Avenue Local (NYC Subway),,FALSE,Constant (>70),FALSE,None,FALSE,Built,1904,,157th Street
-73.950502,40.826462,1812,145th Street,"Manhattan (New York City), NY",Harlem,FALSE,NYC Subway,MA02,FALSE,1 Broadway - Seventh Avenue Local (NYC Subway),,FALSE,Constant (>70),FALSE,None,FALSE,Built,1904,,145th Street
-73.954163,40.821461,1813,137th Street - City College,"Manhattan (New York City), NY",Harlem,FALSE,NYC Subway,MA02,FALSE,1 Broadway - Seventh Avenue Local (NYC Subway),,FALSE,Constant (>70),FALSE,None,FALSE,Built,1904,,137th Street - City College
-73.958317,40.81573,1814,125th Street,"Manhattan (New York City), NY",Morningside Heights,FALSE,NYC Subway,MA02,FALSE,1 Broadway - Seventh Avenue Local (NYC Subway),,FALSE,Constant (>70),FALSE,None,FALSE,Built,1904,,125th Street
-73.963878,40.808042,1815,116th Street - Columbia University,"Manhattan (New York City), NY",Morningside Heights,FALSE,NYC Subway,MA02,FALSE,1 Broadway - Seventh Avenue Local (NYC Subway),,FALSE,Constant (>70),FALSE,None,FALSE,Built,1904,,116th Street - Columbia University
-73.966721,40.80419,1816,Cathedral Parkway - 110th Street,"Manhattan (New York City), NY",Morningside Heights,FALSE,NYC Subway,MA02,FALSE,1 Broadway - Seventh Avenue Local (NYC Subway),,FALSE,Constant (>70),FALSE,None,FALSE,Built,1904,,Cathedral Parkway - 110th Street
-73.968467,40.799143,1817,103rd Street,"Manhattan (New York City), NY",Upper West Side,FALSE,NYC Subway,MA02,FALSE,1 Broadway - Seventh Avenue Local (NYC Subway),,FALSE,Constant (>70),FALSE,None,FALSE,Built,1904,,103rd Street
-73.971874,40.794505,1818,96th Street,"Manhattan (New York City), NY",Upper West Side,FALSE,NYC Subway,MA02,FALSE,"1 Broadway - Seventh Avenue Local (NYC Subway), 2 Seventh Avenue Express (NYC Subway), 3 Seventh Avenue Express (NYC Subway)",,"1 - False, 2 - False, 3 - False","1 - Constant (>70), 2 - Constant (>70), 3 - Constant (>70)",FALSE,None,TRUE,Built,1904,,96th Street
-73.976457,40.7883,1819,86th Street,"Manhattan (New York City), NY",Upper West Side,FALSE,NYC Subway,MA02,FALSE,"1 Broadway - Seventh Avenue Local (NYC Subway), 2 Seventh Avenue Express (NYC Subway)",,"1 - False, 2 - True","1 - Constant (>70), 2 - Moderate (<35)",FALSE,None,FALSE,Built,1904,,86th Street
-73.979968,40.783852,1820,79th Street,"Manhattan (New York City), NY",Upper West Side,FALSE,NYC Subway,MA02,FALSE,"1 Broadway - Seventh Avenue Local (NYC Subway), 2 Seventh Avenue Express (NYC Subway)",,"1 - False, 2 - True","1 - Constant (>70), 2 - Moderate (<35)",FALSE,None,FALSE,Built,1904,,79th Street
-73.981839,40.77903,1821,72nd Street,"Manhattan (New York City), NY",Upper West Side,FALSE,NYC Subway,MA02,FALSE,"1 Broadway - Seventh Avenue Local (NYC Subway), 2 Seventh Avenue Express (NYC Subway), 3 Seventh Avenue Express (NYC Subway)",,"1 - False, 2 - False, 3 - False","1 - Constant (>70), 2 - Constant (>70), 3 - Constant (>70)",FALSE,None,TRUE,Built,1904,,72nd Street
-73.982161,40.773107,1822,66th Street - Lincoln Center,"Manhattan (New York City), NY",Lincoln Square,FALSE,NYC Subway,MA02,FALSE,"1 Broadway - Seventh Avenue Local (NYC Subway), 2 Seventh Avenue Express (NYC Subway)",,"1 - False, 2 - True","1 - Constant (>70), 2 - Moderate (<35)",FALSE,None,TRUE,Built,1904,,66th Street - Lincoln Center
-73.981626,40.767821,1823,59th Street - Columbus Circle,"Manhattan (New York City), NY",Columbus Circle,FALSE,NYC Subway,MA02,TRUE,"1 Broadway - Seventh Avenue Local (NYC Subway), 2 Seventh Avenue Express (NYC Subway), A Eighth Avenue Express (NYC Subway), B Sixth Avenue Express (NYC Subway), C Eighth Avenue Local (NYC Subway), D Sixth Avenue Express (NYC Subway)",,"1 - False, 2 - True, A - False, B - False, C - False, D - False","1 - Constant (>70), 2 - Moderate (<35), A - Constant (>70), B - Constant (>70), C - Constant (>70), D - Constant (>70)",FALSE,None,TRUE,Built,1904,,59th Street - Columbus Circle
-73.984011,40.761416,1824,50th Street,"Manhattan (New York City), NY",Midtown,FALSE,NYC Subway,MA02,FALSE,"1 Broadway - Seventh Avenue Local (NYC Subway), 2 Seventh Avenue Express (NYC Subway)",,"1 - False, 2 - True","1 - Constant (>70), 2 - Moderate (<35)",FALSE,None,FALSE,Built,1904,,50th Street
-73.990544,40.750979,1825,34th Street - Penn Station,"Manhattan (New York City), NY",Midtown,FALSE,NYC Subway,MA02,FALSE,"1 Broadway - Seventh Avenue Local (NYC Subway), 2 Seventh Avenue Express (NYC Subway), 3 Seventh Avenue Express (NYC Subway)",,"1 - False, 2 - False, 3 - False","1 - Constant (>70), 2 - Constant (>70), 3 - Constant (>70)",FALSE,"Penn Station (Amtrak, Long Island Rail Road, NJ Transit Rail)",TRUE,Built,1917,,34th Street - Penn Station
-73.993278,40.747237,1826,28th Street,"Manhattan (New York City), NY",Chelsea,FALSE,NYC Subway,MA02,FALSE,"1 Broadway - Seventh Avenue Local (NYC Subway), 2 Seventh Avenue Express (NYC Subway)",,"1 - False, 2 - True","1 - Constant (>70), 2 - Moderate (<35)",FALSE,None,FALSE,Built,1918,,28th Street
-73.995592,40.744065,1827,23rd Street,"Manhattan (New York City), NY",Chelsea,FALSE,NYC Subway,MA02,FALSE,"1 Broadway - Seventh Avenue Local (NYC Subway), 2 Seventh Avenue Express (NYC Subway)",,"1 - False, 2 - True","1 - Constant (>70), 2 - Moderate (<35)",FALSE,None,FALSE,Built,1918,,23rd Street
-73.99781,40.741021,1828,18th Street,"Manhattan (New York City), NY",Chelsea,FALSE,NYC Subway,MA02,FALSE,"1 Broadway - Seventh Avenue Local (NYC Subway), 2 Seventh Avenue Express (NYC Subway)",,"1 - False, 2 - True","1 - Constant (>70), 2 - Moderate (<35)",FALSE,None,FALSE,Built,1918,,18th Street
-73.999774,40.738303,1829,14th Street,"Manhattan (New York City), NY",Chelsea,FALSE,NYC Subway,MA02,FALSE,"1 Broadway - Seventh Avenue Local (NYC Subway), 2 Seventh Avenue Express (NYC Subway), 3 Seventh Avenue Express (NYC Subway)",,"1 - False, 2 - False, 3 - False","1 - Constant (>70), 2 - Constant (>70), 3 - Constant (>70)",FALSE,14th Street / Sixth Avenue (NYC Subway),FALSE,Built,1918,,14th Street
-74.00272,40.733589,1830,Christopher Street - Sheridan Square,"Manhattan (New York City), NY",Greenwich Village,FALSE,NYC Subway,MA02,FALSE,"1 Broadway - Seventh Avenue Local (NYC Subway), 2 Seventh Avenue Express (NYC Subway)",,"1 - False, 2 - True","1 - Constant (>70), 2 - Moderate (<35)",FALSE,None,FALSE,Built,1918,,Christopher Street - Sheridan Square
-74.005215,40.728576,1831,Houston Street,"Manhattan (New York City), NY",Greenwich Village,FALSE,NYC Subway,MA02,FALSE,"1 Broadway - Seventh Avenue Local (NYC Subway), 2 Seventh Avenue Express (NYC Subway)",,"1 - False, 2 - True","1 - Constant (>70), 2 - Moderate (<35)",FALSE,None,FALSE,Built,1918,,Houston Street
-74.006244,40.722557,1832,Canal Street,"Manhattan (New York City), NY",Tribeca,FALSE,NYC Subway,MA02,FALSE,"1 Broadway - Seventh Avenue Local (NYC Subway), 2 Seventh Avenue Express (NYC Subway)",,"1 - False, 2 - True","1 - Constant (>70), 2 - Moderate (<35)",FALSE,None,FALSE,Built,1918,,Canal Street
-74.006865,40.719093,1833,Franklin Street,"Manhattan (New York City), NY",Tribeca,FALSE,NYC Subway,MA02,FALSE,"1 Broadway - Seventh Avenue Local (NYC Subway), 2 Seventh Avenue Express (NYC Subway)",,"1 - False, 2 - True","1 - Constant (>70), 2 - Moderate (<35)",FALSE,None,FALSE,Built,1918,,Franklin Street
-74.009146,40.715516,1834,Chambers Street,"Manhattan (New York City), NY",Financial District,FALSE,NYC Subway,MA02,FALSE,"1 Broadway - Seventh Avenue Local (NYC Subway), 2 Seventh Avenue Express (NYC Subway), 3 Seventh Avenue Express (NYC Subway)",,"1 - False, 2 - False, 3 - False","1 - Constant (>70), 2 - Constant (>70), 3 - Constant (>70)",FALSE,None,TRUE,Built,1918,,Chambers Street
-74.012256,40.711106,1835,WTC Cortlandt,"Manhattan (New York City), NY",Financial District,FALSE,NYC Subway,MA02,FALSE,1 Broadway - Seventh Avenue Local (NYC Subway),,FALSE,Constant (>70),FALSE,Cortlandt Street (NYC Subway),TRUE,Built,1918,,WTC Cortlandt
-74.013856,40.707394,1836,Rector Street,"Manhattan (New York City), NY",Financial District,FALSE,NYC Subway,MA02,FALSE,1 Broadway - Seventh Avenue Local (NYC Subway),,FALSE,Constant (>70),FALSE,None,FALSE,Built,1918,,Rector Street
-74.01319,40.701716,1837,South Ferry / Whitehall Street,"Manhattan (New York City), NY",Financial District,FALSE,NYC Subway,MA02,TRUE,"1 Broadway - Seventh Avenue Local (NYC Subway), N Broadway Express (NYC Subway), R Broadway Local (NYC Subway), W Broadway Local (NYC Subway)",,"1 - False, N - True, R - False, W - False","1 - Constant (>70), N - Moderate (<35), R - Constant (>70), W - Constant (>70)",TRUE,None,Partial,Built,1905,,South Ferry / Whitehall Street
-73.850566,40.90323,1838,Wakefield - 241st Street,"The Bronx (New York City), NY",Wakefield,FALSE,NYC Subway,MA02,FALSE,2 Seventh Avenue Express (NYC Subway),,FALSE,Constant (>70),TRUE,None,FALSE,Built,1920,,Wakefield - 241st Street
-73.854355,40.898492,1839,Neried Avenue,"The Bronx (New York City), NY",Wakefield,FALSE,NYC Subway,MA02,TRUE,"2 Seventh Avenue Express (NYC Subway), 5 Lexington Avenue Express (NYC Subway)",,"2 - False, 5 - True","2 - Constant (>70), 5 - Light (<15)",TRUE,None,FALSE,Built,1917,,Neried Avenue
-73.857434,40.893392,1840,233rd Street,"The Bronx (New York City), NY",Wakefield,FALSE,NYC Subway,MA02,TRUE,"2 Seventh Avenue Express (NYC Subway), 5 Lexington Avenue Express (NYC Subway)",,"2 - False, 5 - True","2 - Constant (>70), 5 - Light (<15)",FALSE,None,TRUE,Built,1917,,233rd Street
-73.860452,40.888008,1841,225th Street,"The Bronx (New York City), NY",Wakefield,FALSE,NYC Subway,MA02,TRUE,"2 Seventh Avenue Express (NYC Subway), 5 Lexington Avenue Express (NYC Subway)",,"2 - False, 5 - True","2 - Constant (>70), 5 - Light (<15)",FALSE,None,FALSE,Built,1917,,225th Street
-73.862768,40.883793,1842,219th Street,"The Bronx (New York City), NY",Williamsbridge,FALSE,NYC Subway,MA02,TRUE,"2 Seventh Avenue Express (NYC Subway), 5 Lexington Avenue Express (NYC Subway)",,"2 - False, 5 - True","2 - Constant (>70), 5 - Light (<15)",FALSE,None,FALSE,Built,1917,,219th Street
-73.866459,40.877681,1843,Gun Hill Road,"The Bronx (New York City), NY",Williamsbridge,FALSE,NYC Subway,MA02,TRUE,"2 Seventh Avenue Express (NYC Subway), 5 Lexington Avenue Express (NYC Subway)",,"2 - False, 5 - True","2 - Constant (>70), 5 - Light (<15)",FALSE,None,TRUE,Built,1917,,Gun Hill Road
-73.867207,40.871426,1844,Burke Avenue,"The Bronx (New York City), NY",Williamsbridge,FALSE,NYC Subway,MA02,TRUE,"2 Seventh Avenue Express (NYC Subway), 5 Lexington Avenue Express (NYC Subway)",,"2 - False, 5 - True","2 - Constant (>70), 5 - Light (<15)",FALSE,None,FALSE,Built,1917,,Burke Avenue
-73.867411,40.865413,1845,Allerton Avenue,"The Bronx (New York City), NY",Allerton,FALSE,NYC Subway,MA02,TRUE,"2 Seventh Avenue Express (NYC Subway), 5 Lexington Avenue Express (NYC Subway)",,"2 - False, 5 - True","2 - Constant (>70), 5 - Light (<15)",FALSE,None,FALSE,Built,1917,,Allerton Avenue
-73.867688,40.857198,1846,Pelham Parkway,"The Bronx (New York City), NY",Pelham Parkway,FALSE,NYC Subway,MA02,TRUE,"2 Seventh Avenue Express (NYC Subway), 5 Lexington Avenue Express (NYC Subway)",,"2 - False, 5 - True","2 - Constant (>70), 5 - Light (<15)",FALSE,None,TRUE,Built,1917,,Pelham Parkway
-73.868448,40.849015,1847,Bronx Park East,"The Bronx (New York City), NY",Pelham Parkway,FALSE,NYC Subway,MA02,TRUE,"2 Seventh Avenue Express (NYC Subway), 5 Lexington Avenue Express (NYC Subway)",,"2 - False, 5 - True","2 - Constant (>70), 5 - Light (<15)",FALSE,None,FALSE,Built,1917,,Bronx Park East
-73.873548,40.841915,1848,East 180th Street,"The Bronx (New York City), NY",Van Nest,FALSE,NYC Subway,MA02,TRUE,"2 Seventh Avenue Express (NYC Subway), 5 Lexington Avenue Express (NYC Subway)",,"2 - False, 5 - False","2 - Constant (>70), 5 - Constant (>70)",TRUE,None,TRUE,Built,1917,,East 180th Street
-73.879713,40.8407,1849,West Farms Square - East Tremont Avenue,"The Bronx (New York City), NY",Crotona Park East,FALSE,NYC Subway,MA02,TRUE,"2 Seventh Avenue Express (NYC Subway), 5 Lexington Avenue Express (NYC Subway)",,"2 - False, 5 - False","2 - Constant (>70), 5 - Constant (>70)",FALSE,None,FALSE,Built,1904,,West Farms Square - East Tremont Avenue
-73.887811,40.837349,1850,174th Street,"The Bronx (New York City), NY",Crotona Park East,FALSE,NYC Subway,MA02,TRUE,"2 Seventh Avenue Express (NYC Subway), 5 Lexington Avenue Express (NYC Subway)",,"2 - False, 5 - False","2 - Constant (>70), 5 - Constant (>70)",FALSE,None,FALSE,Built,1904,,174th Street
-73.891938,40.830176,1851,Freeman Street,"The Bronx (New York City), NY",Crotona Park East,FALSE,NYC Subway,MA02,TRUE,"2 Seventh Avenue Express (NYC Subway), 5 Lexington Avenue Express (NYC Subway)",,"2 - False, 5 - False","2 - Constant (>70), 5 - Constant (>70)",FALSE,None,FALSE,Built,1904,,Freeman Street
-73.892998,40.824169,1852,Simpson Street,"The Bronx (New York City), NY",Longwood,FALSE,NYC Subway,MA02,TRUE,"2 Seventh Avenue Express (NYC Subway), 5 Lexington Avenue Express (NYC Subway)",,"2 - False, 5 - False","2 - Constant (>70), 5 - Constant (>70)",FALSE,None,TRUE,Built,1904,,Simpson Street
-73.896828,40.822189,1853,Intervale Avenue,"The Bronx (New York City), NY",Longwood,FALSE,NYC Subway,MA02,TRUE,"2 Seventh Avenue Express (NYC Subway), 5 Lexington Avenue Express (NYC Subway)",,"2 - False, 5 - False","2 - Constant (>70), 5 - Constant (>70)",FALSE,None,FALSE,Built,1910,,Intervale Avenue
-73.901677,40.819681,1854,Prospect Avenue,"The Bronx (New York City), NY",Longwood,FALSE,NYC Subway,MA02,TRUE,"2 Seventh Avenue Express (NYC Subway), 5 Lexington Avenue Express (NYC Subway)",,"2 - False, 5 - False","2 - Constant (>70), 5 - Constant (>70)",FALSE,None,FALSE,Built,1904,,Prospect Avenue
-73.90785,40.816597,1855,Jackson Avenue,"The Bronx (New York City), NY",Melrose,FALSE,NYC Subway,MA02,TRUE,"2 Seventh Avenue Express (NYC Subway), 5 Lexington Avenue Express (NYC Subway)",,"2 - False, 5 - False","2 - Constant (>70), 5 - Constant (>70)",FALSE,None,FALSE,Built,1904,,Jackson Avenue
-73.917758,40.816136,1856,Third Avenue - 149th Street,"The Bronx (New York City), NY",The Hub,FALSE,NYC Subway,MA02,TRUE,"2 Seventh Avenue Express (NYC Subway), 5 Lexington Avenue Express (NYC Subway)",,"2 - False, 5 - False","2 - Constant (>70), 5 - Constant (>70)",FALSE,None,TRUE,Built,1905,,Third Avenue - 149th Street
-73.927314,40.818532,1857,149th Street - Grand Concourse,"The Bronx (New York City), NY",Mott Haven,FALSE,NYC Subway,MA02,TRUE,"2 Seventh Avenue Express (NYC Subway), 4 Lexington Avenue Express (NYC Subway), 5 Lexington Avenue Express (NYC Subway)",,"2 - False, 4 - False, 5 - False","2 - Constant (>70), 4 - Constant (>70), 5 - Constant (>70)",FALSE,None,FALSE,Built,1905,,149th Street - Grand Concourse
-73.940943,40.814156,1858,135th Street,"Manhattan (New York City), NY",Harlem,FALSE,NYC Subway,MA02,FALSE,"2 Seventh Avenue Express (NYC Subway), 3 Seventh Avenue Express (NYC Subway)",,"2 - False, 3 - False","2 - Constant (>70), 3 - Constant (>70)",FALSE,None,TRUE,Built,1904,,135th Street
-73.945609,40.807807,1859,125th Street,"Manhattan (New York City), NY",Harlem,FALSE,NYC Subway,MA02,FALSE,"2 Seventh Avenue Express (NYC Subway), 3 Seventh Avenue Express (NYC Subway)",,"2 - False, 3 - False","2 - Constant (>70), 3 - Constant (>70)",FALSE,None,FALSE,Built,1904,,125th Street
-73.94977,40.802066,1860,116th Street,"Manhattan (New York City), NY",Harlem,FALSE,NYC Subway,MA02,FALSE,"2 Seventh Avenue Express (NYC Subway), 3 Seventh Avenue Express (NYC Subway)",,"2 - False, 3 - False","2 - Constant (>70), 3 - Constant (>70)",FALSE,None,FALSE,Built,1904,,116th Street
-73.95259,40.798478,1861,Central Park North - 110th Street,"Manhattan (New York City), NY",Harlem,FALSE,NYC Subway,MA02,FALSE,"2 Seventh Avenue Express (NYC Subway), 3 Seventh Avenue Express (NYC Subway)",,"2 - False, 3 - False","2 - Constant (>70), 3 - Constant (>70)",FALSE,None,FALSE,Built,1904,,Central Park North - 110th Street
-74.009117,40.713095,1862,Park Street,"Manhattan (New York City), NY",Financial District,FALSE,NYC Subway,MA02,FALSE,"2 Seventh Avenue Express (NYC Subway), 3 Seventh Avenue Express (NYC Subway)",,"2 - False, 3 - False","2 - Constant (>70), 3 - Constant (>70)",FALSE,"World Trade Center (NYC Subway), Chambers Street (NYC Subway), Cortlandt Street (NYC Subway)",Partial,Built,1918,,Park Street
-74.006512,40.709523,1863,Fulton Street,"Manhattan (New York City), NY",Financial District,FALSE,NYC Subway,MA02,FALSE,"2 Seventh Avenue Express (NYC Subway), 3 Seventh Avenue Express (NYC Subway)",,"2 - False, 3 - False","2 - Constant (>70), 3 - Constant (>70)",FALSE,Fulton Street (NYC Subway),TRUE,Built,1918,,Fulton Street
-74.009261,40.706742,1864,Wall Street,"Manhattan (New York City), NY",Financial District,FALSE,NYC Subway,MA02,FALSE,"2 Seventh Avenue Express (NYC Subway), 3 Seventh Avenue Express (NYC Subway)",,"2 - False, 3 - False","2 - Constant (>70), 3 - Constant (>70)",FALSE,None,FALSE,Built,1918,,Wall Street
-73.993048,40.697423,1865,Clark Street,"Brooklyn (New York City), NY",Brooklyn Heights,FALSE,NYC Subway,MA02,FALSE,"2 Seventh Avenue Express (NYC Subway), 3 Seventh Avenue Express (NYC Subway)",,"2 - False, 3 - False","2 - Constant (>70), 3 - Constant (>70)",FALSE,None,Partial,Built,1919,,Clark Street
-73.989264,40.692282,1866,Borough Hall,"Brooklyn (New York City), NY",Brooklyn Heights,FALSE,NYC Subway,MA02,TRUE,"2 Seventh Avenue Express (NYC Subway), 3 Seventh Avenue Express (NYC Subway), 4 Lexington Avenue Express (NYC Subway), 5 Lexington Avenue Express (NYC Subway)",,"2 - False, 3 - False, 4 - False, 5 - False","2 - Constant (>70), 3 - Constant (>70), 4 - Constant (>70), 5 - Constant (>70)",FALSE,Court Street (NYC Subway),Partial,Built,1908,,Borough Hall
-73.984977,40.690494,1867,Hoyt Street,"Brooklyn (New York City), NY",Downtown Brooklyn,FALSE,NYC Subway,MA02,FALSE,"2 Seventh Avenue Express (NYC Subway), 3 Seventh Avenue Express (NYC Subway)",,"2 - False, 3 - False","2 - Constant (>70), 3 - Constant (>70)",FALSE,None,FALSE,Built,1908,,Hoyt Street
-73.980549,40.688226,1868,Nevins Street,"Brooklyn (New York City), NY",Downtown Brooklyn,FALSE,NYC Subway,MA02,TRUE,"2 Seventh Avenue Express (NYC Subway), 3 Seventh Avenue Express (NYC Subway), 4 Lexington Avenue Express (NYC Subway), 5 Lexington Avenue Express (NYC Subway)",,"2 - False, 3 - False, 4 - False, 5 - False","2 - Constant (>70), 3 - Constant (>70), 4 - Constant (>70), 5 - Constant (>70)",FALSE,None,FALSE,Built,1908,,Nevins Street
-73.977189,40.683563,1869,Atlantic Avenue - Barclays Center,"Brooklyn (New York City), NY",Downtown Brooklyn,TRUE,NYC Subway,MA02,TRUE,"2 Seventh Avenue Express (NYC Subway), 3 Seventh Avenue Express (NYC Subway), 4 Lexington Avenue Express (NYC Subway), 5 Lexington Avenue Express (NYC Subway), B Sixth Avenue Express (NYC Subway), Q Second Avenue / Broadway Express / Brighton Local (NYC Subway)",,"2 - False, 3 - False, 4 - False, 5 - False, B - False, Q - False","2 - Constant (>70), 3 - Constant (>70), 4 - Constant (>70), 5 - Constant (>70), B - Constant (>70), Q - Constant (>70)",FALSE,"Atlantic Avenue - Barclays Center (NYC Subway), Atlantic Terminal (Long Island Rail Road)",TRUE,Built,1908,,Atlantic Avenue - Barclays Center
-73.975176,40.680771,1870,Bergen Street,"Brooklyn (New York City), NY",Park Slope,FALSE,NYC Subway,MA02,TRUE,"2 Seventh Avenue Express (NYC Subway), 3 Seventh Avenue Express (NYC Subway), 4 Lexington Avenue Express (NYC Subway)",,"2 - False, 3 - False, 4 - True","2 - Constant (>70), 3 - Constant (>70), 4 - Moderate (<35)",FALSE,None,FALSE,Built,1920,,Bergen Street
-73.97088,40.67492,1871,Grand Avenue Plaza,"Brooklyn (New York City), NY",Park Slope,FALSE,NYC Subway,MA02,TRUE,"2 Seventh Avenue Express (NYC Subway), 3 Seventh Avenue Express (NYC Subway), 4 Lexington Avenue Express (NYC Subway)",,"2 - False, 3 - False, 4 - True","2 - Constant (>70), 3 - Constant (>70), 4 - Moderate (<35)",FALSE,None,FALSE,Built,1920,,Grand Avenue Plaza
-73.964274,40.671872,1872,Eastern Parkway - Brooklyn Museum,"Brooklyn (New York City), NY",Prospect Heights,FALSE,NYC Subway,MA02,TRUE,"2 Seventh Avenue Express (NYC Subway), 3 Seventh Avenue Express (NYC Subway), 4 Lexington Avenue Express (NYC Subway)",,"2 - False, 3 - False, 4 - True","2 - Constant (>70), 3 - Constant (>70), 4 - Moderate (<35)",FALSE,None,FALSE,Built,1920,,Eastern Parkway - Brooklyn Museum
-73.950727,40.668097,1873,President Street,"Brooklyn (New York City), NY",Crown Heights,FALSE,NYC Subway,MA02,TRUE,"2 Seventh Avenue Express (NYC Subway), 5 Lexington Avenue Express (NYC Subway)",,"2 - False, 5 - False","2 - Constant (>70), 5 - Constant (>70)",FALSE,None,FALSE,Built,1920,,President Street
-73.95096,40.663111,1874,Sterling Street,"Brooklyn (New York City), NY",Prospect Lefferts Gardens,FALSE,NYC Subway,MA02,TRUE,"2 Seventh Avenue Express (NYC Subway), 5 Lexington Avenue Express (NYC Subway)",,"2 - False, 5 - False","2 - Constant (>70), 5 - Constant (>70)",FALSE,None,FALSE,Built,1920,,Sterling Street
-73.950293,40.657074,1875,Winthrop Street,"Brooklyn (New York City), NY",Prospect Lefferts Gardens,FALSE,NYC Subway,MA02,TRUE,"2 Seventh Avenue Express (NYC Subway), 5 Lexington Avenue Express (NYC Subway)",,"2 - False, 5 - False","2 - Constant (>70), 5 - Constant (>70)",FALSE,None,FALSE,Built,1920,,Winthrop Street
-73.949609,40.650777,1876,Church Avenue,"Brooklyn (New York City), NY",East Flatbush,FALSE,NYC Subway,MA02,TRUE,"2 Seventh Avenue Express (NYC Subway), 5 Lexington Avenue Express (NYC Subway)",,"2 - False, 5 - False","2 - Constant (>70), 5 - Constant (>70)",FALSE,None,TRUE,Built,1920,,Church Avenue
-73.949008,40.645109,1877,Beverly Road,"Brooklyn (New York City), NY",East Flatbush,FALSE,NYC Subway,MA02,TRUE,"2 Seventh Avenue Express (NYC Subway), 5 Lexington Avenue Express (NYC Subway)",,"2 - False, 5 - False","2 - Constant (>70), 5 - Constant (>70)",FALSE,None,FALSE,Built,1920,,Beverly Road
-73.948467,40.639969,1878,Newkirk Avenue,"Brooklyn (New York City), NY",Flatbush,FALSE,NYC Subway,MA02,TRUE,"2 Seventh Avenue Express (NYC Subway), 5 Lexington Avenue Express (NYC Subway)",,"2 - False, 5 - False","2 - Constant (>70), 5 - Constant (>70)",FALSE,None,FALSE,Built,1920,,Newkirk Avenue
-73.947732,40.632852,1879,Flatbush Avenue - Brooklyn College,"Brooklyn (New York City), NY",Flatbush,FALSE,NYC Subway,MA02,TRUE,"2 Seventh Avenue Express (NYC Subway), 5 Lexington Avenue Express (NYC Subway)",,"2 - False, 5 - False","2 - Constant (>70), 5 - Constant (>70)",TRUE,None,TRUE,Built,1920,,Flatbush Avenue - Brooklyn College
-73.936085,40.82369,1880,Harlem - 148th Street,"Manhattan (New York City), NY",Harlem,FALSE,NYC Subway,MA02,FALSE,3 Seventh Avenue Express (NYC Subway),,FALSE,Constant (>70),TRUE,None,FALSE,Built,1968,,Harlem - 148th Street
-73.936176,40.820442,1881,145th Street,"Manhattan (New York City), NY",Harlem,FALSE,NYC Subway,MA02,FALSE,3 Seventh Avenue Express (NYC Subway),,FALSE,Constant (>70),FALSE,None,FALSE,Built,1904,,145th Street
-73.950501,40.66987,1882,Nostrand Avenue,"Brooklyn (New York City), NY",Crown Heights,FALSE,NYC Subway,MA02,TRUE,"3 Seventh Avenue Express (NYC Subway), 4 Lexington Avenue Express (NYC Subway)",,"3 - False, 4 - True, 5 - True","3 - Constant (>70), 4 - Moderate (<35), 5 - Light (<15)",FALSE,None,FALSE,Built,1920,,Nostrand Avenue
-73.942167,40.669404,1883,Kingston Avenue,"Brooklyn (New York City), NY",Crown Heights,FALSE,NYC Subway,MA02,TRUE,"3 Seventh Avenue Express (NYC Subway), 4 Lexington Avenue Express (NYC Subway)",,"3 - False, 4 - True, 5 - True","3 - Constant (>70), 4 - Moderate (<35), 5 - Light (<15)",FALSE,None,FALSE,Built,1920,,Kingston Avenue
-73.931115,40.668809,1884,Crown Heights - Utica Avenue,"Brooklyn (New York City), NY",Crown Heights,FALSE,NYC Subway,MA02,TRUE,"3 Seventh Avenue Express (NYC Subway), 4 Lexington Avenue Express (NYC Subway)",,"3 - False, 4 - True, 5 - True","3 - Constant (>70), 4 - Moderate (<35), 5 - Light (<15)",TRUE,None,TRUE,Built,1920,,Crown Heights - Utica Avenue
-73.922713,40.664878,1885,Sutter Avenue - Rutland Road,"Brooklyn (New York City), NY",Brownsville,FALSE,NYC Subway,MA02,TRUE,"3 Seventh Avenue Express (NYC Subway), 4 Lexington Avenue Express (NYC Subway)",,"3 - False, 4 - True","3 - Constant (>70), 4 - Moderate (<35)",FALSE,None,FALSE,Built,1920,,Sutter Avenue - Rutland Road
-73.916248,40.661498,1886,Saratoga Avenue,"Brooklyn (New York City), NY",Brownsville,FALSE,NYC Subway,MA02,TRUE,"3 Seventh Avenue Express (NYC Subway), 4 Lexington Avenue Express (NYC Subway)",,"3 - False, 4 - True","3 - Constant (>70), 4 - Moderate (<35)",FALSE,None,FALSE,Built,1920,,Saratoga Avenue
-73.908856,40.662607,1887,Rockaway Avenue,"Brooklyn (New York City), NY",Brownsville,FALSE,NYC Subway,MA02,TRUE,"3 Seventh Avenue Express (NYC Subway), 4 Lexington Avenue Express (NYC Subway)",,"3 - False, 4 - True","3 - Constant (>70), 4 - Moderate (<35)",FALSE,None,FALSE,Built,1920,,Rockaway Avenue
-73.902439,40.663553,1888,Junius Street,"Brooklyn (New York City), NY",Brownsville,FALSE,NYC Subway,MA02,TRUE,"3 Seventh Avenue Express (NYC Subway), 4 Lexington Avenue Express (NYC Subway)",,"3 - False, 4 - True","3 - Constant (>70), 4 - Moderate (<35)",FALSE,None,FALSE,Built,1920,,Junius Street
-73.89475,40.664698,1889,Pennsylvania Avenue,"Brooklyn (New York City), NY",East New York,FALSE,NYC Subway,MA02,TRUE,"3 Seventh Avenue Express (NYC Subway), 4 Lexington Avenue Express (NYC Subway)",,"3 - False, 4 - True","3 - Constant (>70), 4 - Moderate (<35)",FALSE,None,FALSE,Built,1920,,Pennsylvania Avenue
-73.889248,40.665518,1890,Van Siclen Avenue,"Brooklyn (New York City), NY",East New York,FALSE,NYC Subway,MA02,TRUE,"3 Seventh Avenue Express (NYC Subway), 4 Lexington Avenue Express (NYC Subway)",,"3 - False, 4 - True","3 - Constant (>70), 4 - Moderate (<35)",FALSE,None,FALSE,Built,1922,,Van Siclen Avenue
-73.883734,40.666339,1891,New Lots Avenue,"Brooklyn (New York City), NY",East New York,FALSE,NYC Subway,MA02,TRUE,"3 Seventh Avenue Express (NYC Subway), 4 Lexington Avenue Express (NYC Subway)",,"3 - False, 4 - True","3 - Constant (>70), 4 - Moderate (<35)",TRUE,None,FALSE,Built,1922,,New Lots Avenue
-73.940004,40.836912,1892,163rd Street - Amsterdam Avenue,"Manhattan (New York City), NY",Washington Heights,FALSE,NYC Subway,MA02,FALSE,"A Eighth Avenue Express (NYC Subway), C Eighth Avenue Local (NYC Subway)",,"A - True, C - False","A - Moderate (<35), C - Constant (>70)",FALSE,None,FALSE,Built,1932,,163rd Street - Amsterdam Avenue
-73.94143,40.830888,1893,155th Street,"Manhattan (New York City), NY",Washington Heights,FALSE,NYC Subway,MA02,FALSE,"A Eighth Avenue Express (NYC Subway), C Eighth Avenue Local (NYC Subway)",,"A - True, C - False","A - Moderate (<35), C - Constant (>70)",FALSE,None,FALSE,Built,1932,,155th Street
-73.94471,40.824026,1894,145th Street,"Manhattan (New York City), NY",Hamilton Heights,FALSE,NYC Subway,MA02,TRUE,"A Eighth Avenue Express (NYC Subway), B Sixth Avenue Express (NYC Subway), C Eighth Avenue Local (NYC Subway), D Sixth Avenue Express (NYC Subway)",,"A - False, B - False, C - False, D - False","A - Constant (>70), B - Constant (>70), C - Constant (>70), D - Constant (>70)",TRUE,None,FALSE,Built,1932,,145th Street
-73.947982,40.817114,1895,135th Street,"Manhattan (New York City), NY",Hamilton Heights,FALSE,NYC Subway,MA02,TRUE,"A Eighth Avenue Express (NYC Subway), B Sixth Avenue Express (NYC Subway), C Eighth Avenue Local (NYC Subway)",,"A - True, B - False, C - False","A - Moderate (<35), B - Constant (>70), C - Constant (>70)",FALSE,None,FALSE,Built,1932,,135th Street
-73.952549,40.810763,1896,125th Street,"Manhattan (New York City), NY",Harlem,FALSE,NYC Subway,MA02,TRUE,"A Eighth Avenue Express (NYC Subway), B Sixth Avenue Express (NYC Subway), C Eighth Avenue Local (NYC Subway), D Sixth Avenue Express (NYC Subway)",,"A - False, B - False, C - False, D - False","A - Constant (>70), B - Constant (>70), C - Constant (>70), D - Constant (>70)",FALSE,None,TRUE,Built,1932,,125th Street
-73.955855,40.803738,1897,116th Street,"Manhattan (New York City), NY",Harlem,FALSE,NYC Subway,MA02,TRUE,"A Eighth Avenue Express (NYC Subway), B Sixth Avenue Express (NYC Subway), C Eighth Avenue Local (NYC Subway)",,"A - True, B - False, C - False","A - Moderate (<35), B - Constant (>70), C - Constant (>70)",FALSE,None,FALSE,Built,1932,,116th Street
-73.958229,40.800486,1898,Cathedral Parkway - 110th Street,"Manhattan (New York City), NY",Upper West Side,FALSE,NYC Subway,MA02,TRUE,"A Eighth Avenue Express (NYC Subway), B Sixth Avenue Express (NYC Subway), C Eighth Avenue Local (NYC Subway)",,"A - True, B - False, C - False","A - Moderate (<35), B - Constant (>70), C - Constant (>70)",FALSE,None,FALSE,Built,1932,,Cathedral Parkway - 110th Street
-73.961368,40.796148,1899,103rd Street,"Manhattan (New York City), NY",Upper West Side,FALSE,NYC Subway,MA02,TRUE,"A Eighth Avenue Express (NYC Subway), B Sixth Avenue Express (NYC Subway), C Eighth Avenue Local (NYC Subway)",,"A - True, B - False, C - False","A - Moderate (<35), B - Constant (>70), C - Constant (>70)",FALSE,None,FALSE,Built,1932,,103rd Street
-73.964453,40.791863,1900,96th Street,"Manhattan (New York City), NY",Upper West Side,FALSE,NYC Subway,MA02,TRUE,"A Eighth Avenue Express (NYC Subway), B Sixth Avenue Express (NYC Subway), C Eighth Avenue Local (NYC Subway)",,"A - True, B - False, C - False","A - Moderate (<35), B - Constant (>70), C - Constant (>70)",FALSE,None,FALSE,Built,1932,,96th Street
-73.968696,40.786067,1901,86th Street,"Manhattan (New York City), NY",Upper West Side,FALSE,NYC Subway,MA02,TRUE,"A Eighth Avenue Express (NYC Subway), B Sixth Avenue Express (NYC Subway), C Eighth Avenue Local (NYC Subway)",,"A - True, B - False, C - False","A - Moderate (<35), B - Constant (>70), C - Constant (>70)",FALSE,None,FALSE,Built,1932,,86th Street
-73.972013,40.781556,1902,81st Street - Museum of Natural History,"Manhattan (New York City), NY",Upper West Side,FALSE,NYC Subway,MA02,TRUE,"A Eighth Avenue Express (NYC Subway), B Sixth Avenue Express (NYC Subway), C Eighth Avenue Local (NYC Subway)",,"A - True, B - False, C - False","A - Moderate (<35), B - Constant (>70), C - Constant (>70)",FALSE,None,FALSE,Built,1932,,81st Street - Museum of Natural History
-73.97592,40.776251,1903,72nd Street,"Manhattan (New York City), NY",Upper West Side,FALSE,NYC Subway,MA02,TRUE,"A Eighth Avenue Express (NYC Subway), B Sixth Avenue Express (NYC Subway), C Eighth Avenue Local (NYC Subway)",,"A - True, B - False, C - False","A - Moderate (<35), B - Constant (>70), C - Constant (>70)",FALSE,None,FALSE,Built,1932,,72nd Street
-73.986052,40.762355,1904,50th Street,"Manhattan (New York City), NY",Hell's Kitchen,FALSE,NYC Subway,MA02,FALSE,"A Eighth Avenue Express (NYC Subway), C Eighth Avenue Local (NYC Subway), E Eighth Avenue Local (NYC Subway)",,"A - True, C - False, E - False","A - Moderate (<35), C - Constant (>70), E - Constant (>70)",FALSE,None,Partial,Built,1932,,50th Street
-73.989774,40.757257,1905,42nd Street - Port Authority Bus Terminal,"Manhattan (New York City), NY",Midtown,FALSE,NYC Subway,MA02,FALSE,"A Eighth Avenue Express (NYC Subway), C Eighth Avenue Local (NYC Subway), E Eighth Avenue Local (NYC Subway)",,"A - False, C - False, E - False","A - Constant (>70), C - Constant (>70), E - Constant (>70)",FALSE,Times Square - 42nd Street (NYC Subway),TRUE,Built,1932,,42nd Street - Port Authority Bus Terminal
-73.993487,40.752176,1906,34th Street - Penn Station,"Manhattan (New York City), NY",Midtown,FALSE,NYC Subway,MA02,FALSE,"A Eighth Avenue Express (NYC Subway), C Eighth Avenue Local (NYC Subway), E Eighth Avenue Local (NYC Subway)",,"A - False, C - False, E - False","A - Constant (>70), C - Constant (>70), E - Constant (>70)",FALSE,None,TRUE,Built,1932,,34th Street - Penn Station
-73.998479,40.745342,1907,23rd Street,"Manhattan (New York City), NY",Chelsea,FALSE,NYC Subway,MA02,FALSE,"A Eighth Avenue Express (NYC Subway), C Eighth Avenue Local (NYC Subway), E Eighth Avenue Local (NYC Subway)",,"A - True, C - False, E - False","A - Moderate (<35), C - Constant (>70), E - Constant (>70)",FALSE,None,FALSE,Built,1932,,23rd Street
-74.001373,40.731209,1908,West Fourth Street - Washington Square,"Manhattan (New York City), NY",Greenwich Village,FALSE,NYC Subway,MA02,TRUE,"A Eighth Avenue Express (NYC Subway), B Sixth Avenue Express (NYC Subway), C Eighth Avenue Local (NYC Subway), D Sixth Avenue Express (NYC Subway), E Eighth Avenue Local (NYC Subway), F Queens Boulevard Express / Sixth Avenue Local (NYC Subway), M Queens Boulevard / Sixth Avenue Local (NYC Subway)",,"A - False, B - False, C - False, D - False, E - False, F - False, M - False","A - Constant (>70), B - Constant (>70), C - Constant (>70), D - Constant (>70), E - Constant (>70), F - Constant (>70), M - Constant (>70)",FALSE,None,TRUE,Built,1932,,West Fourth Street - Washington Square
-74.003999,40.725662,1909,Spring Street,"Manhattan (New York City), NY",Hudson Square,FALSE,NYC Subway,MA02,FALSE,"A Eighth Avenue Express (NYC Subway), C Eighth Avenue Local (NYC Subway), E Eighth Avenue Local (NYC Subway)",,"A - True, C - False, E - False","A - Moderate (<35), C - Constant (>70), E - Constant (>70)",FALSE,None,FALSE,Built,1932,,Spring Street
-74.005295,40.720447,1910,Canal Street,"Manhattan (New York City), NY",Tribeca,FALSE,NYC Subway,MA02,FALSE,"A Eighth Avenue Express (NYC Subway), C Eighth Avenue Local (NYC Subway), E Eighth Avenue Local (NYC Subway)",,"A - False, C - False, E - False","A - Constant (>70), C - Constant (>70), E - Constant (>70)",FALSE,None,FALSE,Built,1932,,Canal Street
-74.00798,40.714912,1911,Chambers Street,"Manhattan (New York City), NY",Financial District,FALSE,NYC Subway,MA02,FALSE,"A Eighth Avenue Express (NYC Subway), C Eighth Avenue Local (NYC Subway)",,"A - False, C - False","A - Constant (>70), C - Constant (>70)",FALSE,"World Trade Center (NYC Subway), Park Place (NYC Subway), Cortlandt Street (NYC Subway)",Partial,Built,1932,,Chambers Street
-74.007784,40.710185,1912,Fulton Street,"Manhattan (New York City), NY",Financial District,FALSE,NYC Subway,MA02,TRUE,"A Eighth Avenue Express (NYC Subway), C Eighth Avenue Local (NYC Subway), J Nassau Street Local (NYC Subway), Z Nassau Street Express (NYC Subway)",,"A - False, C - False, J - False, Z - True (Rush Hours Only)","A - Constant (>70), C - Constant (>70), J - Constant (>70), Z - Light (<15)",FALSE,Fulton Street (NYC Subway),TRUE,Built,1931,,Fulton Street
-73.991398,40.69932,1913,High Street,"Brooklyn (New York City), NY",Brooklyn Heights,FALSE,NYC Subway,MA02,FALSE,"A Eighth Avenue Express (NYC Subway), C Eighth Avenue Local (NYC Subway)",,"A - False, C - False","A - Constant (>70), C - Constant (>70)",FALSE,None,FALSE,Built,1933,,High Street
-73.98724,40.692265,1914,Jay Street - MetroTech,"Brooklyn (New York City), NY",Downtown Brooklyn,FALSE,NYC Subway,MA02,TRUE,"A Eighth Avenue Express (NYC Subway), C Eighth Avenue Local (NYC Subway), F Queens Boulevard Express / Sixth Avenue Local (NYC Subway), N Broadway Express (NYC Subway), R Broadway Local (NYC Subway)",,"A - False, C - False, F - False, N - True, R - False","A - Constant (>70), C - Constant (>70), F - Constant (>70), N - Moderate (<35), R - Constant (>70)",FALSE,None,TRUE,Built,1924,,Jay Street - MetroTech
-73.986084,40.689006,1915,Hoyt - Schermerhorn Street,"Brooklyn (New York City), NY",Downtown Brooklyn,FALSE,NYC Subway,MA02,TRUE,"A Eighth Avenue Express (NYC Subway), C Eighth Avenue Local (NYC Subway), G Brooklyn - Queens Crosstown (NYC Subway)",,"A - False, C - False, G - False","A - Constant (>70), C - Constant (>70), G - Constant (>70)",FALSE,None,Partial,Built,1936,,Hoyt - Schermerhorn Street
-73.974412,40.686316,1916,Lafayette Avenue,"Brooklyn (New York City), NY",Fort Greene,FALSE,NYC Subway,MA02,FALSE,"A Eighth Avenue Express (NYC Subway), C Eighth Avenue Local (NYC Subway)",,"A - True, C - False","A - Moderate (<35), C - Constant (>70)",FALSE,None,FALSE,Built,1936,,Lafayette Avenue
-73.965867,40.683267,1917,Clinton - Washington Avenues,"Brooklyn (New York City), NY",Clinton Hill,FALSE,NYC Subway,MA02,FALSE,"A Eighth Avenue Express (NYC Subway), C Eighth Avenue Local (NYC Subway)",,"A - True, C - False","A - Moderate (<35), C - Constant (>70)",FALSE,None,FALSE,Built,1936,,Clinton - Washington Avenues
-73.949564,40.68042,1918,Nostrand Avenue,"Brooklyn (New York City), NY",Bedford - Stuyvesant,FALSE,NYC Subway,MA02,FALSE,"A Eighth Avenue Express (NYC Subway), C Eighth Avenue Local (NYC Subway)",,"A - False, C - False","A - Constant (>70), C - Constant (>70)",FALSE,None,FALSE,Built,1936,,Nostrand Avenue
-73.940768,40.679908,1919,Kingston - Throop Avenues,"Brooklyn (New York City), NY",Bedford - Stuyvesant,FALSE,NYC Subway,MA02,FALSE,"A Eighth Avenue Express (NYC Subway), C Eighth Avenue Local (NYC Subway)",,"A - True, C - False","A - Moderate (<35), C - Constant (>70)",FALSE,None,FALSE,Built,1936,,Kingston - Throop Avenues
-73.93088,40.679334,1920,Utica Avenue,"Brooklyn (New York City), NY",Bedford - Stuyvesant,FALSE,NYC Subway,MA02,FALSE,"A Eighth Avenue Express (NYC Subway), C Eighth Avenue Local (NYC Subway)",,"A - False, C - False","A - Constant (>70), C - Constant (>70)",FALSE,None,TRUE,Built,1936,,Utica Avenue
-73.921663,40.678849,1921,Ralph Avenue,"Brooklyn (New York City), NY",Bedford - Stuyvesant,FALSE,NYC Subway,MA02,FALSE,"A Eighth Avenue Express (NYC Subway), C Eighth Avenue Local (NYC Subway)",,"A - True, C - False","A - Moderate (<35), C - Constant (>70)",FALSE,None,FALSE,Built,1936,,Ralph Avenue
-73.910762,40.678285,1922,Rockaway Avenue,"Brooklyn (New York City), NY",Bedford - Stuyvesant,FALSE,NYC Subway,MA02,FALSE,"A Eighth Avenue Express (NYC Subway), C Eighth Avenue Local (NYC Subway)",,"A - True, C - False","A - Moderate (<35), C - Constant (>70)",FALSE,None,FALSE,Built,1936,,Rockaway Avenue
-73.904195,40.678312,1923,Broadway Junction,"Brooklyn (New York City), NY",East New York,FALSE,NYC Subway,MA02,FALSE,"A Eighth Avenue Express (NYC Subway), C Eighth Avenue Local (NYC Subway)",,"A - False, C - False","A - Constant (>70), C - Constant (>70)",FALSE,Broadway Junction (NYC Subway),FALSE,Built,1946,,Broadway Junction
-73.896467,40.6744,1924,Liberty Avenue,"Brooklyn (New York City), NY",East New York,FALSE,NYC Subway,MA02,FALSE,"A Eighth Avenue Express (NYC Subway), C Eighth Avenue Local (NYC Subway)",,"A - True, C - False","A - Moderate (<35), C - Constant (>70)",FALSE,None,FALSE,Built,1948,,Liberty Avenue
-73.890322,40.672672,1925,Van Siclen Avenue,"Brooklyn (New York City), NY",East New York,FALSE,NYC Subway,MA02,FALSE,"A Eighth Avenue Express (NYC Subway), C Eighth Avenue Local (NYC Subway)",,"A - True, C - False","A - Moderate (<35), C - Constant (>70)",FALSE,None,FALSE,Built,1948,,Van Siclen Avenue
-73.880764,40.674084,1926,Shepherd Avenue,"Brooklyn (New York City), NY",East New York,FALSE,NYC Subway,MA02,FALSE,"A Eighth Avenue Express (NYC Subway), C Eighth Avenue Local (NYC Subway)",,"A - True, C - False","A - Moderate (<35), C - Constant (>70)",FALSE,None,FALSE,Built,1948,,Shepherd Avenue
-73.871888,40.675423,1927,Euclid Avenue,"Brooklyn (New York City), NY",East New York,FALSE,NYC Subway,MA02,FALSE,"A Eighth Avenue Express (NYC Subway), C Eighth Avenue Local (NYC Subway)",,"A - False, C - False","A - Constant (>70), C - Constant (>70)",TRUE,None,TRUE,Built,1948,,Euclid Avenue
-73.921153,40.867665,1928,Inwood - 207th Street,"Manhattan (New York City), NY",Inwood,FALSE,NYC Subway,MA02,FALSE,A Eighth Avenue Express (NYC Subway),,FALSE,Constant (>70),TRUE,None,TRUE,Built,1932,,Inwood - 207th Street
-73.92774,40.865334,1929,Dyckman Street,"Manhattan (New York City), NY",Inwood,FALSE,NYC Subway,MA02,FALSE,A Eighth Avenue Express (NYC Subway),,FALSE,Constant (>70),FALSE,None,FALSE,Built,1932,,Dyckman Street
-73.934158,40.859011,1930,190th Street,"Manhattan (New York City), NY",Washington Heights,FALSE,NYC Subway,MA02,FALSE,A Eighth Avenue Express (NYC Subway),,FALSE,Constant (>70),FALSE,None,Partial,Built,1932,,190th Street
-73.937891,40.852004,1931,181st Street,"Manhattan (New York City), NY",Washington Heights,FALSE,NYC Subway,MA02,FALSE,A Eighth Avenue Express (NYC Subway),,FALSE,Constant (>70),FALSE,None,Partial,Built,1932,,181st Street
-73.940052,40.846523,1932,175th Street,"Manhattan (New York City), NY",Washington Heights,FALSE,NYC Subway,MA02,FALSE,A Eighth Avenue Express (NYC Subway),,FALSE,Constant (>70),FALSE,None,TRUE,Built,1932,,175th Street
-73.865468,40.676745,1933,Grant Avenue,"Brooklyn (New York City), NY",City Line,FALSE,NYC Subway,MA02,FALSE,A Eighth Avenue Express (NYC Subway),,FALSE,Constant (>70),FALSE,None,FALSE,Built,1956,,Grant Avenue
-73.859016,40.679372,1934,80th Street,"Queens (New York City), NY",Ozone Park,FALSE,NYC Subway,MA02,FALSE,A Eighth Avenue Express (NYC Subway),,FALSE,Constant (>70),FALSE,None,FALSE,Built,1915,,80th Street
-73.851447,40.679843,1935,88th Street,"Queens (New York City), NY",Ozone Park,FALSE,NYC Subway,MA02,FALSE,A Eighth Avenue Express (NYC Subway),,FALSE,Constant (>70),FALSE,None,FALSE,Built,1915,,88th Street
-73.843767,40.680432,1936,Rockaway Boulevard,"Queens (New York City), NY",Ozone Park,FALSE,NYC Subway,MA02,FALSE,A Eighth Avenue Express (NYC Subway),,FALSE,Constant (>70),FALSE,None,FALSE,Built,1915,,Rockaway Boulevard
-73.837714,40.681717,1937,104th Street,"Queens (New York City), NY",Ozone Park,FALSE,NYC Subway,MA02,FALSE,A Eighth Avenue Express (NYC Subway),Lefferts Boulevard Branch (A),FALSE,Constant (>70),FALSE,None,FALSE,Built,1915,,104th Street
-73.831929,40.684438,1938,111th Street,"Queens (New York City), NY",Richmond Hill,FALSE,NYC Subway,MA02,FALSE,A Eighth Avenue Express (NYC Subway),Lefferts Boulevard Branch (A),FALSE,Constant (>70),FALSE,None,FALSE,Built,1915,,111th Street
-73.825782,40.685957,1939,Ozone Park - Lefferts Boulevard,"Queens (New York City), NY",Richmond Hill,FALSE,NYC Subway,MA02,FALSE,A Eighth Avenue Express (NYC Subway),Lefferts Boulevard Branch (A),FALSE,Constant (>70),TRUE,None,FALSE,Built,1915,,Ozone Park - Lefferts Boulevard
-73.83592,40.672109,1940,Aqueduct Racetrack,"Queens (New York City), NY",Ozone Park,FALSE,NYC Subway,MA02,FALSE,A Eighth Avenue Express (NYC Subway),"Far Rockaway Branch (A), Rockaway Park Branch (A)",FALSE,Constant (>70),FALSE,None,TRUE,Built,1959,,Aqueduct Racetrack
-73.8335,40.667048,1941,Aqueduct - North Conduit Avenue,"Queens (New York City), NY",Ozone Park,FALSE,NYC Subway,MA02,FALSE,A Eighth Avenue Express (NYC Subway),"Far Rockaway Branch (A), Rockaway Park Branch (A)",FALSE,Constant (>70),FALSE,None,FALSE,Built,1883,,Aqueduct - North Conduit Avenue
-73.830257,40.660473,1942,Howard Beach - JFK Airport,"Queens (New York City), NY",Howard Beach,TRUE,"NYC Subway, AirTrain JFK","MA02, MA11",TRUE,"A Eighth Avenue Express (NYC Subway), AirTrain JFK","Far Rockaway Branch (A), Rockaway Park Branch (A)",A - False,A - Constant (>70),TRUE,None,TRUE,Built,1913,,Howard Beach - JFK Airport
-73.815805,40.607969,1943,Broad Channel,"Queens (New York City), NY",Broad Channel,FALSE,NYC Subway,MA02,TRUE,"A Eighth Avenue Express (NYC Subway), S Rockaway Park Shuttle (NYC Subway)","Far Rockaway Branch (A), Rockaway Park Branch (A)","A - False, S - False","A - Constant (>70), S - Heavy (<70)",TRUE,None,FALSE,Built,1880,,Broad Channel
-73.796309,40.590993,1944,Beach 67th Street,"Queens (New York City), NY",Arverne,FALSE,NYC Subway,MA02,FALSE,A Eighth Avenue Express (NYC Subway),Far Rockaway Branch (A),FALSE,Constant (>70),FALSE,None,FALSE,Built,1888,,Beach 67th Street
-73.788723,40.592339,1945,Beach 60th Street,"Queens (New York City), NY",Arverne,FALSE,NYC Subway,MA02,FALSE,A Eighth Avenue Express (NYC Subway),Far Rockaway Branch (A),FALSE,Constant (>70),FALSE,None,FALSE,Built,1892,,Beach 60th Street
-73.775897,40.592931,1946,Beach 44th Street,"Queens (New York City), NY",Edgemere,FALSE,NYC Subway,MA02,FALSE,A Eighth Avenue Express (NYC Subway),Far Rockaway Branch (A),FALSE,Constant (>70),FALSE,None,FALSE,Built,1922,,Beach 44th Street
-73.768418,40.595275,1947,Beach 36th Street,"Queens (New York City), NY",Edgemere,FALSE,NYC Subway,MA02,FALSE,A Eighth Avenue Express (NYC Subway),Far Rockaway Branch (A),FALSE,Constant (>70),FALSE,None,FALSE,Built,1895,,Beach 36th Street
-73.761765,40.599579,1948,Beach 25th Street,"Queens (New York City), NY",Bayswater,FALSE,NYC Subway,MA02,FALSE,A Eighth Avenue Express (NYC Subway),Far Rockaway Branch (A),FALSE,Constant (>70),FALSE,None,FALSE,Built,1928,,Beach 25th Street
-73.754427,40.604544,1949,Far Rockaway - Mott Avenue,"Queens (New York City), NY",Far Rockaway,FALSE,NYC Subway,MA02,FALSE,A Eighth Avenue Express (NYC Subway),Far Rockaway Branch (A),FALSE,Constant (>70),TRUE,None,TRUE,Built,1869,,Far Rockaway - Mott Avenue
-73.81371,40.588005,1950,Beach 90th Street,"Queens (New York City), NY",Rockaway Beach,FALSE,NYC Subway,MA02,TRUE,"A Eighth Avenue Express (NYC Subway), S Rockaway Park Shuttle (NYC Subway)",Rockaway Park Branch (A),"A - True, S - False","A - Light (<15), S - Heavy (<70)",FALSE,None,FALSE,Built,1880,,Beach 90th Street
-73.820447,40.58534,1951,Beach 98th Street,"Queens (New York City), NY",Rockaway Beach,FALSE,NYC Subway,MA02,TRUE,"A Eighth Avenue Express (NYC Subway), S Rockaway Park Shuttle (NYC Subway)",Rockaway Park Branch (A),"A - True, S - False","A - Light (<15), S - Heavy (<70)",FALSE,None,FALSE,Built,1903,,Beach 98th Street
-73.827365,40.583256,1952,Beach 105th Street,"Queens (New York City), NY",Rockaway Park,FALSE,NYC Subway,MA02,TRUE,"A Eighth Avenue Express (NYC Subway), S Rockaway Park Shuttle (NYC Subway)",Rockaway Park Branch (A),"A - True, S - False","A - Light (<15), S - Heavy (<70)",FALSE,None,FALSE,Built,1880,,Beach 105th Street
-73.83535,40.580903,1953,Rockaway Park - Beach 116th Street,"Queens (New York City), NY",Rockaway Park,FALSE,NYC Subway,MA02,TRUE,"A Eighth Avenue Express (NYC Subway), S Rockaway Park Shuttle (NYC Subway)",Rockaway Park Branch (A),"A - True, S - False","A - Light (<15), S - Heavy (<70)",TRUE,None,TRUE,Built,1882,,Rockaway Park - Beach 116th Street
-73.981353,40.762869,1954,Seventh Avenue,"Manhattan (New York City), NY",Midtown,FALSE,NYC Subway,MA02,TRUE,"B Sixth Avenue Express (NYC Subway), D Sixth Avenue Express (NYC Subway), E Eighth Avenue Local (NYC Subway)",,"B - False, D - False, E - False","B - Constant (>70), D - Constant (>70), E - Constant (>70)",FALSE,None,FALSE,Built,1933,,Seventh Avenue
-73.975956,40.760598,1955,Fifth Avenue / 53rd Street,"Manhattan (New York City), NY",Midtown,FALSE,NYC Subway,MA02,TRUE,"E Eighth Avenue Local (NYC Subway), M Queens Boulevard / Sixth Avenue Local (NYC Subway)",,"E - False, M - False","E - Constant (>70), M - Constant (>70)",FALSE,None,FALSE,Built,1933,,Fifth Avenue / 53rd Street
-73.970531,40.758328,1956,Lexington Avenue - 53rd Street,"Manhattan (New York City), NY",Midtown,FALSE,NYC Subway,MA02,TRUE,"E Eighth Avenue Local (NYC Subway), M Queens Boulevard / Sixth Avenue Local (NYC Subway)",,"E - False, M - False","E - Constant (>70), M - Constant (>70)",FALSE,51st Street (NYC Subway),TRUE,Built,1933,,Lexington Avenue - 53rd Street
-73.946855,40.748135,1957,Court Square - 23rd Street,"Queens (New York City), NY",Long Island City,FALSE,NYC Subway,MA02,TRUE,"E Eighth Avenue Local (NYC Subway), M Queens Boulevard / Sixth Avenue Local (NYC Subway)",,"E - False, M - False","E - Constant (>70), M - Constant (>70)",FALSE,Court Square (NYC Subway),Partial,Built,1939,,Court Square - 23rd Street
-73.937203,40.749075,1958,Queens Plaza,"Queens (New York City), NY",Long Island City,FALSE,NYC Subway,MA02,TRUE,"E Eighth Avenue Local (NYC Subway), M Queens Boulevard / Sixth Avenue Local (NYC Subway), R Broadway Local (NYC Subway)",,"E - False, M - False, R - False","E - Constant (>70), M - Constant (>70), R - Constant (>70)",FALSE,None,TRUE,Built,1933,,Queens Plaza
-73.928271,40.752264,1959,36th Street,"Queens (New York City), NY",Long Island City,FALSE,NYC Subway,MA02,TRUE,"E Eighth Avenue Local (NYC Subway), M Queens Boulevard / Sixth Avenue Local (NYC Subway), R Broadway Local (NYC Subway)",,"E - True, M - False, R - False","E - Moderate (<35), M - Constant (>70), R - Constant (>70)",FALSE,None,FALSE,Built,1933,,36th Street
-73.920256,40.757573,1960,Steinway Street,"Queens (New York City), NY",Astoria,FALSE,NYC Subway,MA02,TRUE,"E Eighth Avenue Local (NYC Subway), M Queens Boulevard / Sixth Avenue Local (NYC Subway), R Broadway Local (NYC Subway)",,"E - True, M - False, R - False","E - Moderate (<35), M - Constant (>70), R - Constant (>70)",FALSE,None,FALSE,Built,1933,,Steinway Street
-73.914024,40.75669,1961,46th Street,"Queens (New York City), NY",Astoria,FALSE,NYC Subway,MA02,TRUE,"E Eighth Avenue Local (NYC Subway), M Queens Boulevard / Sixth Avenue Local (NYC Subway), R Broadway Local (NYC Subway)",,"E - True, M - False, R - False","E - Moderate (<35), M - Constant (>70), R - Constant (>70)",FALSE,None,FALSE,Built,1933,,46th Street
-73.906761,40.753318,1962,Northern Boulevard,"Queens (New York City), NY",Woodside,FALSE,NYC Subway,MA02,TRUE,"E Eighth Avenue Local (NYC Subway), M Queens Boulevard / Sixth Avenue Local (NYC Subway), R Broadway Local (NYC Subway)",,"E - True, M - False, R - False","E - Moderate (<35), M - Constant (>70), R - Constant (>70)",FALSE,None,FALSE,Built,1933,,Northern Boulevard
-73.897763,40.74949,1963,65th Street,"Queens (New York City), NY",Woodside,FALSE,NYC Subway,MA02,TRUE,"E Eighth Avenue Local (NYC Subway), M Queens Boulevard / Sixth Avenue Local (NYC Subway), R Broadway Local (NYC Subway)",,"E - True, M - False, R - False","E - Moderate (<35), M - Constant (>70), R - Constant (>70)",FALSE,None,FALSE,Built,1933,,65th Street
-73.890773,40.746551,1964,Jackson Heights - Roosevelt Avenue,"Queens (New York City), NY",Jackson Heights,FALSE,NYC Subway,MA02,TRUE,"E Eighth Avenue Local (NYC Subway), F Queens Boulevard Express / Sixth Avenue Local (NYC Subway), M Queens Boulevard / Sixth Avenue Local (NYC Subway), R Broadway Local (NYC Subway)",,"E - False, F - False, M - False, R - False","E - Constant (>70), F - Constant (>70), M - Constant (>70), R - Constant (>70)",FALSE,74th Street - Broadway (NYC Subway),TRUE,Built,1933,,Jackson Heights - Roosevelt Avenue
-73.881145,40.742076,1965,Elmhurst Avenue,"Queens (New York City), NY",Elmhurst,FALSE,NYC Subway,MA02,TRUE,"E Eighth Avenue Local (NYC Subway), M Queens Boulevard / Sixth Avenue Local (NYC Subway), R Broadway Local (NYC Subway)",,"E - True, M - False, R - False","E - Moderate (<35), M - Constant (>70), R - Constant (>70)",FALSE,None,FALSE,Built,1936,,Elmhurst Avenue
-73.877217,40.737195,1966,Grand Avenue - Newtown,"Queens (New York City), NY",Elmhurst,FALSE,NYC Subway,MA02,TRUE,"E Eighth Avenue Local (NYC Subway), M Queens Boulevard / Sixth Avenue Local (NYC Subway), R Broadway Local (NYC Subway)",,"E - True, M - False, R - False","E - Moderate (<35), M - Constant (>70), R - Constant (>70)",FALSE,None,FALSE,Built,1936,,Grand Avenue - Newtown
-73.869667,40.733326,1967,Woodhaven Boulevard,"Queens (New York City), NY",Elmhurst,FALSE,NYC Subway,MA02,TRUE,"E Eighth Avenue Local (NYC Subway), M Queens Boulevard / Sixth Avenue Local (NYC Subway), R Broadway Local (NYC Subway)",,"E - True, M - False, R - False","E - Moderate (<35), M - Constant (>70), R - Constant (>70)",FALSE,None,FALSE,Built,1936,,Woodhaven Boulevard
-73.861703,40.72997,1968,63rd Drive - Rego Park,"Queens (New York City), NY",Rego Park,FALSE,NYC Subway,MA02,TRUE,"E Eighth Avenue Local (NYC Subway), M Queens Boulevard / Sixth Avenue Local (NYC Subway), R Broadway Local (NYC Subway)",,"E - True, M - False, R - False","E - Moderate (<35), M - Constant (>70), R - Constant (>70)",FALSE,None,FALSE,Built,1936,,63rd Drive - Rego Park
-73.853223,40.726837,1969,67th Avenue,"Queens (New York City), NY",Forest Hills,FALSE,NYC Subway,MA02,TRUE,"E Eighth Avenue Local (NYC Subway), M Queens Boulevard / Sixth Avenue Local (NYC Subway), R Broadway Local (NYC Subway)",,"E - True, M - False, R - False","E - Moderate (<35), M - Constant (>70), R - Constant (>70)",FALSE,None,FALSE,Built,1936,,67th Avenue
-73.844612,40.721814,1970,Forest Hills - 71st Avenue,"Queens (New York City), NY",Forest Hills,FALSE,NYC Subway,MA02,TRUE,"E Eighth Avenue Local (NYC Subway), F Queens Boulevard Express / Sixth Avenue Local (NYC Subway), M Queens Boulevard / Sixth Avenue Local (NYC Subway), R Broadway Local (NYC Subway)",,"E - False, F - False, M - False, R - False","E - Constant (>70), F - Constant (>70), M - Constant (>70), R - Constant (>70)",TRUE,None,TRUE,Built,1936,,Forest Hills - 71st Avenue
-73.837459,40.718619,1971,75th Avenue,"Queens (New York City), NY",Forest Hills,FALSE,NYC Subway,MA02,TRUE,"E Eighth Avenue Local (NYC Subway), F Queens Boulevard Express / Sixth Avenue Local (NYC Subway)",,"E - True, F - False","E - Heavy (<70), F - Constant (>70)",FALSE,None,FALSE,Built,1936,,75th Avenue
-73.831836,40.714895,1972,Kew Gardens - Union Turnpike,"Queens (New York City), NY",Kew Gardens,FALSE,NYC Subway,MA02,TRUE,"E Eighth Avenue Local (NYC Subway), F Queens Boulevard Express / Sixth Avenue Local (NYC Subway)",,"E - False, F - False","E - Constant (>70), F - Constant (>70)",FALSE,None,TRUE,Built,1936,,Kew Gardens - Union Turnpike
-73.820655,40.709136,1973,Briarwood,"Queens (New York City), NY",Briarwood,FALSE,NYC Subway,MA02,TRUE,"E Eighth Avenue Local (NYC Subway), F Queens Boulevard Express / Sixth Avenue Local (NYC Subway)",,"E - True, F - False","E - Heavy (<70), F - Constant (>70)",FALSE,None,Partial,Built,1937,,Briarwood
-73.817329,40.702762,1974,Jamaica - Van Wyck,"Queens (New York City), NY",Kew Gardens,FALSE,NYC Subway,MA02,FALSE,E Eighth Avenue Local (NYC Subway),,FALSE,Constant (>70),FALSE,None,TRUE,Built,1988,,Jamaica - Van Wyck
-73.808152,40.700453,1975,Sutphin Boulevard - Archer Avenue - JFK Airport,"Queens (New York City), NY",Jamaica,FALSE,NYC Subway,MA02,TRUE,"E Eighth Avenue Local (NYC Subway), J Nassau Street Local (NYC Subway), Z Nassau Street Express (NYC Subway)",,"E - False, J - False, Z - True (Rush Hours Only)","E - Constant (>70), J - Constant (>70), Z - Light (<15)",FALSE,"Jamaica (Long Island Rail Road, AirTrain JFK)",TRUE,Built,1988,,Sutphin Boulevard - Archer Avenue - JFK Airport
-73.800856,40.70235,1976,Jamaica Center - Parsons / Archer,"Queens (New York City), NY",Jamaica,FALSE,NYC Subway,MA02,TRUE,"E Eighth Avenue Local (NYC Subway), J Nassau Street Local (NYC Subway), Z Nassau Street Express (NYC Subway)",,"E - False, J - False, Z - True (Rush Hours Only)","E - Constant (>70), J - Constant (>70), Z - Light (<15)",TRUE,None,TRUE,Built,1988,,Jamaica Center - Parsons / Archer
-73.878577,40.886276,1977,Woodlawn,"The Bronx (New York City), NY",Norwood,FALSE,NYC Subway,MA02,FALSE,4 Lexington Avenue Express (NYC Subway),,FALSE,Constant (>70),TRUE,None,FALSE,Built,1918,,Woodlawn
-73.884722,40.879732,1978,Mosholu Parkway,"The Bronx (New York City), NY",Norwood,FALSE,NYC Subway,MA02,FALSE,4 Lexington Avenue Express (NYC Subway),,FALSE,Constant (>70),FALSE,None,FALSE,Built,1918,,Mosholu Parkway
-73.890171,40.873372,1979,Bedford Park Boulevard - Lehman College,"The Bronx (New York City), NY",Bedford Park,FALSE,NYC Subway,MA02,FALSE,4 Lexington Avenue Express (NYC Subway),,FALSE,Constant (>70),FALSE,None,FALSE,Built,1918,,Bedford Park Boulevard - Lehman College
-73.897138,40.867857,1980,Kingsbridge Road,"The Bronx (New York City), NY",Fordham,FALSE,NYC Subway,MA02,FALSE,4 Lexington Avenue Express (NYC Subway),,FALSE,Constant (>70),FALSE,None,FALSE,Built,1917,,Kingsbridge Road
-73.901026,40.86278,1981,Fordham Road,"The Bronx (New York City), NY",Fordham,FALSE,NYC Subway,MA02,FALSE,4 Lexington Avenue Express (NYC Subway),,FALSE,Constant (>70),FALSE,None,TRUE,Built,1917,,Fordham Road
-73.903952,40.85833,1982,183rd Street,"The Bronx (New York City), NY",Fordham,FALSE,NYC Subway,MA02,FALSE,4 Lexington Avenue Express (NYC Subway),,FALSE,Constant (>70),FALSE,None,FALSE,Built,1917,,183rd Street
-73.907747,40.853442,1983,Burnside Avenue,"The Bronx (New York City), NY",Morris Heights,FALSE,NYC Subway,MA02,FALSE,4 Lexington Avenue Express (NYC Subway),,FALSE,Constant (>70),FALSE,None,FALSE,Built,1917,,Burnside Avenue
-73.91187,40.848399,1984,176th Street,"The Bronx (New York City), NY",Morris Heights,FALSE,NYC Subway,MA02,FALSE,4 Lexington Avenue Express (NYC Subway),,FALSE,Constant (>70),FALSE,None,FALSE,Built,1917,,176th Street
-73.914802,40.844278,1985,Mount Eden Avenue,"The Bronx (New York City), NY",Highbridge,FALSE,NYC Subway,MA02,FALSE,4 Lexington Avenue Express (NYC Subway),,FALSE,Constant (>70),FALSE,None,FALSE,Built,1917,,Mount Eden Avenue
-73.91788,40.839938,1986,170th Street,"The Bronx (New York City), NY",Highbridge,FALSE,NYC Subway,MA02,FALSE,4 Lexington Avenue Express (NYC Subway),,FALSE,Constant (>70),FALSE,None,FALSE,Built,1917,,170th Street
-73.921317,40.835699,1987,167th Street,"The Bronx (New York City), NY",Highbridge,FALSE,NYC Subway,MA02,FALSE,4 Lexington Avenue Express (NYC Subway),,FALSE,Constant (>70),FALSE,None,FALSE,Built,1917,,167th Street
-73.925941,40.827794,1988,161st Street - Yankee Stadium,"The Bronx (New York City), NY",Highbridge,FALSE,NYC Subway,MA02,TRUE,"4 Lexington Avenue Express (NYC Subway), B Sixth Avenue Express (NYC Subway), D Sixth Avenue Express (NYC Subway)",,"4 - False, B - True (Rush Hours Only), D - False","4 - Constant (>70), B - Heavy (<70), D - Constant (>70)",FALSE,None,TRUE,Built,1917,,161st Street - Yankee Stadium
-73.93006,40.813194,1989,138th Street - Grand Concourse,"The Bronx (New York City), NY",Mott Haven,FALSE,NYC Subway,MA02,TRUE,"4 Lexington Avenue Express (NYC Subway), 5 Lexington Avenue Express (NYC Subway)",,"4 - False, 5 - False","4 - Constant (>70), 5 - Constant (>70)",FALSE,None,FALSE,Built,1918,,138th Street - Grand Concourse
-73.937405,40.804366,1990,125th Street,"Manhattan (New York City), NY",East Harlem,FALSE,NYC Subway,MA02,TRUE,"4 Lexington Avenue Express (NYC Subway), 5 Lexington Avenue Express (NYC Subway), 6 Lexington Avenue Local (NYC Subway), <6> Pelham Bay Park Express (NYC Subway)",,"4 - False, 5 - False, 6 - False, <6> - True","4 - Constant (>70), 5 - Constant (>70), 6 - Constant (>70), <6> - Heavy (<70)",FALSE,None,TRUE,Built,1918,,125th Street
-73.94164,40.798566,1991,116th Street,"Manhattan (New York City), NY",East Harlem,FALSE,NYC Subway,MA02,TRUE,"4 Lexington Avenue Express (NYC Subway), 6 Lexington Avenue Local (NYC Subway), <6> Pelham Bay Park Express (NYC Subway)",,"4 - True, 6 - False, <6> - True","4 - Moderate (<35), 5 - Constant (>70), 6 - Constant (>70), <6> - Heavy (<70)",FALSE,None,FALSE,Built,1918,,116th Street
-73.944415,40.794778,1992,110th Street,"Manhattan (New York City), NY",East Harlem,FALSE,NYC Subway,MA02,TRUE,"4 Lexington Avenue Express (NYC Subway), 6 Lexington Avenue Local (NYC Subway), <6> Pelham Bay Park Express (NYC Subway)",,"4 - True, 6 - False, <6> - True","4 - Moderate (<35), 5 - Constant (>70), 6 - Constant (>70), <6> - Heavy (<70)",FALSE,None,FALSE,Built,1918,,110th Street
-73.947706,40.79031,1993,103rd Street,"Manhattan (New York City), NY",East Harlem,FALSE,NYC Subway,MA02,TRUE,"4 Lexington Avenue Express (NYC Subway), 6 Lexington Avenue Local (NYC Subway), <6> Pelham Bay Park Express (NYC Subway)",,"4 - True, 6 - False, <6> - True","4 - Moderate (<35), 5 - Constant (>70), 6 - Constant (>70), <6> - Heavy (<70)",FALSE,None,FALSE,Built,1918,,103rd Street
-73.950926,40.785923,1994,96th Street,"Manhattan (New York City), NY",Carnegie Hill,FALSE,NYC Subway,MA02,TRUE,"4 Lexington Avenue Express (NYC Subway), 6 Lexington Avenue Local (NYC Subway), <6> Pelham Bay Park Express (NYC Subway)",,"4 - True, 6 - False, <6> - True","4 - Moderate (<35), 5 - Constant (>70), 6 - Constant (>70), <6> - Heavy (<70)",FALSE,None,FALSE,Built,1918,,96th Street
-73.95555,40.77953,1995,86th Street,"Manhattan (New York City), NY",Upper East Side,FALSE,NYC Subway,MA02,TRUE,"4 Lexington Avenue Express (NYC Subway), 5 Lexington Avenue Express (NYC Subway), 6 Lexington Avenue Local (NYC Subway), <6> Pelham Bay Park Express (NYC Subway)",,"4 - False, 5 - False, 6 - False, <6> - True","4 - Constant (>70), 5 - Constant (>70), 6 - Constant (>70), <6> - Heavy (<70)",FALSE,None,FALSE,Built,1918,,86th Street
-73.959816,40.773648,1996,77th Street,"Manhattan (New York City), NY",Upper East Side,FALSE,NYC Subway,MA02,TRUE,"4 Lexington Avenue Express (NYC Subway), 6 Lexington Avenue Local (NYC Subway), <6> Pelham Bay Park Express (NYC Subway)",,"4 - True, 6 - False, <6> - True","4 - Moderate (<35), 5 - Constant (>70), 6 - Constant (>70), <6> - Heavy (<70)",FALSE,None,FALSE,Built,1918,,77th Street
-73.964116,40.767863,1997,68th Street - Hunter College,"Manhattan (New York City), NY",Upper East Side,FALSE,NYC Subway,MA02,TRUE,"4 Lexington Avenue Express (NYC Subway), 6 Lexington Avenue Local (NYC Subway), <6> Pelham Bay Park Express (NYC Subway)",,"4 - True, 6 - False, <6> - True","4 - Moderate (<35), 5 - Constant (>70), 6 - Constant (>70), <6> - Heavy (<70)",FALSE,None,FALSE,Built,1918,,68th Street - Hunter College
-73.967873,40.762675,1998,59th Street,"Manhattan (New York City), NY",Upper East Side,FALSE,NYC Subway,MA02,TRUE,"4 Lexington Avenue Express (NYC Subway), 5 Lexington Avenue Express (NYC Subway), 6 Lexington Avenue Local (NYC Subway), <6> Pelham Bay Park Express (NYC Subway)",,"4 - False, 5 - False, 6 - False, <6> - True","4 - Constant (>70), 5 - Constant (>70), 6 - Constant (>70), <6> - Heavy (<70)",FALSE,Lexington Avenue - 59th Street (NYC Subway),FALSE,Built,1918,,59th Street
-73.97192,40.757108,1999,51st Street,"Manhattan (New York City), NY",Midtown,FALSE,NYC Subway,MA02,TRUE,"4 Lexington Avenue Express (NYC Subway), 6 Lexington Avenue Local (NYC Subway), <6> Pelham Bay Park Express (NYC Subway)",,"4 - True, 6 - False, <6> - True","4 - Moderate (<35), 5 - Constant (>70), 6 - Constant (>70), <6> - Heavy (<70)",FALSE,Lexington Avenue - 53rd Street (NYC Subway),TRUE,Built,1918,,51st Street
-73.981886,40.746334,2000,33rd Street,"Manhattan (New York City), NY",Murray Hill,FALSE,NYC Subway,MA02,TRUE,"4 Lexington Avenue Express (NYC Subway), 6 Lexington Avenue Local (NYC Subway), <6> Pelham Bay Park Express (NYC Subway)",,"4 - True, 6 - False, <6> - True","4 - Moderate (<35), 5 - Constant (>70), 6 - Constant (>70), <6> - Heavy (<70)",FALSE,None,TRUE,Built,1904,,33rd Street
-73.984234,40.743091,2001,28th Street,"Manhattan (New York City), NY",Rose Hill,FALSE,NYC Subway,MA02,TRUE,"4 Lexington Avenue Express (NYC Subway), 6 Lexington Avenue Local (NYC Subway), <6> Pelham Bay Park Express (NYC Subway)",,"4 - True, 6 - False, <6> - True","4 - Moderate (<35), 5 - Constant (>70), 6 - Constant (>70), <6> - Heavy (<70)",FALSE,None,Partial,Built,1904,,28th Street
-73.986426,40.740102,2002,23rd Street,"Manhattan (New York City), NY",Gramercy,FALSE,NYC Subway,MA02,TRUE,"4 Lexington Avenue Express (NYC Subway), 6 Lexington Avenue Local (NYC Subway), <6> Pelham Bay Park Express (NYC Subway)",,"4 - True, 6 - False, <6> - True","4 - Moderate (<35), 5 - Constant (>70), 6 - Constant (>70), <6> - Heavy (<70)",FALSE,None,TRUE,Built,1904,,23rd Street
-73.98991,40.735143,2003,14th Street - Union Square,"Manhattan (New York City), NY",Gramercy,FALSE,NYC Subway,MA02,TRUE,"4 Lexington Avenue Express (NYC Subway), 5 Lexington Avenue Express (NYC Subway), 6 Lexington Avenue Local (NYC Subway), <6> Pelham Bay Park Express (NYC Subway)",,"4 - False, 5 - False, 6 - False, <6> - True","4 - Constant (>70), 5 - Constant (>70), 6 - Constant (>70), <6> - Heavy (<70)",FALSE,14th Street - Union Square (NYC Subway),Partial,Built,1904,,14th Street - Union Square
-73.991446,40.72984,2004,Astor Place,"Manhattan (New York City), NY",East Village,FALSE,NYC Subway,MA02,TRUE,"4 Lexington Avenue Express (NYC Subway), 6 Lexington Avenue Local (NYC Subway), <6> Pelham Bay Park Express (NYC Subway)",,"4 - True, 6 - False, <6> - True","4 - Moderate (<35), 5 - Constant (>70), 6 - Constant (>70), <6> - Heavy (<70)",FALSE,None,FALSE,Built,1904,,Astor Place
-73.994678,40.725912,2005,Bleecker Street,"Manhattan (New York City), NY",NoHo,FALSE,NYC Subway,MA02,TRUE,"4 Lexington Avenue Express (NYC Subway), 6 Lexington Avenue Local (NYC Subway), <6> Pelham Bay Park Express (NYC Subway)",,"4 - True, 6 - False, <6> - True","4 - Moderate (<35), 5 - Constant (>70), 6 - Constant (>70), <6> - Heavy (<70)",FALSE,Broadway - Lafayette Street (NYC Subway),TRUE,Built,1904,,Bleecker Street
-73.997174,40.722311,2006,Spring Street,"Manhattan (New York City), NY",Little Italy,FALSE,NYC Subway,MA02,TRUE,"4 Lexington Avenue Express (NYC Subway), 6 Lexington Avenue Local (NYC Subway), <6> Pelham Bay Park Express (NYC Subway)",,"4 - True, 6 - False, <6> - True","4 - Moderate (<35), 5 - Constant (>70), 6 - Constant (>70), <6> - Heavy (<70)",FALSE,None,FALSE,Built,1904,,Spring Street
-74.000354,40.718629,2007,Canal Street,"Manhattan (New York City), NY",Chinatown,FALSE,NYC Subway,MA02,TRUE,"4 Lexington Avenue Express (NYC Subway), 6 Lexington Avenue Local (NYC Subway), <6> Pelham Bay Park Express (NYC Subway)",,"4 - True, 6 - False, <6> - True","4 - Moderate (<35), 5 - Constant (>70), 6 - Constant (>70), <6> - Heavy (<70)",FALSE,"Canal Street (NYC Subway), Canal Street (NYC Subway)",TRUE,Built,1904,,Canal Street
-74.005101,40.712409,2008,Brooklyn Bridge - City Hall,"Manhattan (New York City), NY",Civic Center,FALSE,NYC Subway,MA02,TRUE,"4 Lexington Avenue Express (NYC Subway), 5 Lexington Avenue Express (NYC Subway), 6 Lexington Avenue Local (NYC Subway), <6> Pelham Bay Park Express (NYC Subway)",,"4 - False, 5 - False, 6 - False, <6> - True","4 - Constant (>70), 5 - Constant (>70), 6 - Constant (>70), <6> - Heavy (<70)",TRUE,Chambers Street (NYC Subway),TRUE,Built,1904,,Brooklyn Bridge - City Hall
-74.011541,40.707951,2009,Wall Street,"Manhattan (New York City), NY",Financial District,FALSE,NYC Subway,MA02,TRUE,"4 Lexington Avenue Express (NYC Subway), 5 Lexington Avenue Express (NYC Subway)",,"4 - False, 5 - False","4 - Constant (>70), 5 - Constant (>70)",FALSE,None,FALSE,Built,1905,,Wall Street
-74.01424,40.704556,2010,Bowling Green,"Manhattan (New York City), NY",Financial District,FALSE,NYC Subway,MA02,TRUE,"4 Lexington Avenue Express (NYC Subway), 5 Lexington Avenue Express (NYC Subway)",,"4 - False, 5 - False","4 - Constant (>70), 5 - Constant (>70)",TRUE,None,TRUE,Built,1905,,Bowling Green
-74.008779,40.711209,2011,Fulton Street,"Manhattan (New York City), NY",Financial District,FALSE,NYC Subway,MA02,TRUE,"4 Lexington Avenue Express (NYC Subway), 5 Lexington Avenue Express (NYC Subway)",,"4 - False, 5 - False","4 - Constant (>70), 5 - Constant (>70)",FALSE,Fulton Street (NYC Subway),TRUE,Built,1905,,Fulton Street
-73.830693,40.888485,2012,Eastchester - Dyre Avenue,"The Bronx (New York City), NY",Eastchester,FALSE,NYC Subway,MA02,FALSE,5 Lexington Avenue Express (NYC Subway),,FALSE,Constant (>70),TRUE,None,FALSE,Built,1912,,Eastchester - Dyre Avenue
-73.838478,40.878818,2013,Baychester Avenue,"The Bronx (New York City), NY",Eastchester,FALSE,NYC Subway,MA02,FALSE,5 Lexington Avenue Express (NYC Subway),,FALSE,Constant (>70),FALSE,None,FALSE,Built,1912,,Baychester Avenue
-73.846213,40.869716,2014,Gun Hill Road,"The Bronx (New York City), NY",Baychester,FALSE,NYC Subway,MA02,FALSE,5 Lexington Avenue Express (NYC Subway),,FALSE,Constant (>70),FALSE,None,FALSE,Built,1912,,Gun Hill Road
