geo_longitude,geo_latitude,Unique_ID,Name,City,Neighborhood,Multi_System,System,System_Code,Multi_Line,Lines,Service,Limited_Service,Service_Frequency,Terminus,Connections,Handicap_Accessible,Status,Year_Opened,Web_Link,Name_Link_HTML
-72.925772,41.29732,1001,New Haven,"New Haven, CT",,TRUE,"Amtrak, Metro-North Railroad, CTrail","NE01, NE05, MA03",TRUE,"Acela Express (Amtrak), Northeast Regional (Amtrak), Vermonter (Amtrak), Valley Flyer (Amtrak), New Haven Line (Metro-North Railroad), Shore Line East (CTrail)",Main Branch (New Haven Line),"Acela Express - False, Northeast Regional - False, Valley Flyer - True, New Haven Line (Main Branch) - False, ","Acela Express - Light (<15), Northeast Regional - Light (<15), Valley Flyer - Light (<5) New Haven Line - Heavy (<70),  Shore Line East - Medium (<35)",TRUE,None,TRUE,Built,1920,https://en.wikipedia.org/wiki/Union_Station_(New_Haven),"<a href=""https://en.wikipedia.org/wiki/Union_Station_(New_Haven)"" target=""_blank"">New Haven</a>"
-72.921525,41.304974,1002,New Haven State Street,"New Haven, CT",,TRUE,"Metro-North Railroad, CTrail","NE05, MA03",FALSE,"Valley Flyer (Amtrak), New Haven Line (Metro-North Railroad), Hartford Line (CTrail), Shore Line East (CTrail)",Main Branch (New Haven Line),"Valley Flyer - True, New Haven Line (Main Branch) - True, Hartford Line - False, Shore Line East - False","Valley Flyer - Minimal (<5), New Haven Line (Main Branch) - Light (<15), Hartford Line - Light (<15), Shore Line East - Medium (<35)",TRUE,None,TRUE,Built,2002,https://en.wikipedia.org/wiki/New_Haven_State_Street_station,"<a href=""https://en.wikipedia.org/wiki/New_Haven_State_Street_station"" target=""_blank"">New Haven State Street</a>"
-72.963234,41.270813,1003,West Haven,"West Haven, CT",,TRUE,"Metro-North Railroad, CTrail","NE05, MA03",FALSE,"New Haven Line (Metro-North Railroad), Shore Line East (CTrail)",Main Branch (New Haven Line),"New Haven Line (Main Branch) - False, Shore Line East - True","New Haven Line (Main Branch) - Heavy (<70), Shore Line East - Minimal (<5) (Peak Hours Only)",FALSE,None,TRUE,Built,2013,https://en.wikipedia.org/wiki/West_Haven_station,"<a href=""https://en.wikipedia.org/wiki/West_Haven_station"" target=""_blank"">West Haven</a>"
-73.059411,41.222402,1004,Milford,"Milford, CT",,TRUE,"Metro-North Railroad, CTrail","NE05, MA03",FALSE,"New Haven Line (Metro-North Railroad), Shore Line East (CTrail)",Main Branch (New Haven Line),"New Haven Line (Main Branch) - False, Shore Line East - True","New Haven Line (Main Branch) - Heavy (<70), Shore Line East - Minimal (<5) (Peak Hours Only)",FALSE,None,FALSE,Built,,https://en.wikipedia.org/wiki/Milford_station_(Connecticut),"<a href=""https://en.wikipedia.org/wiki/Milford_station_(Connecticut)"" target=""_blank"">Milford</a>"
-73.13093,41.194464,1005,Stratford,"Stratford, CT",,TRUE,"Metro-North Railroad, CTrail","NE05, MA03",FALSE,"New Haven Line (Metro-North Railroad), Shore Line East (CTrail)","Main Branch (New Haven Line), Waterbury Branch (New Haven Line)","New Haven Line (Main Branch) - False, New Haven Line (Waterbury Branch) - True, Shore Line East - True","New Haven Line (Main Branch) - Heavy (<70), New Haven Line (Waterbury Branch) - Minimal (<5) (Peak Hours Only), Shore Line East - Minimal (<5) (Peak Hours Only)",TRUE,None,FALSE,Built,,https://en.wikipedia.org/wiki/Stratford_station_(Connecticut),"<a href=""https://en.wikipedia.org/wiki/Stratford_station_(Connecticut)"" target=""_blank"">Stratford</a>"
-73.186545,41.177908,1006,Bridgeport,"Bridgeport, CT",,TRUE,"Amtrak, Metro-North Railroad, CTrail","NE01, NE05, MA03",TRUE,"Northeast Regional (Amtrak), Vermonter (Amtrak), New Haven Line (Metro-North Railroad), Shore Line East (CTrail)","Main Branch (New Haven Line), Waterbury Branch (New Haven Line)","Northeast Regional - False, New Haven Line (Main Branch) - False, New Haven Line (Waterbury Branch) - False, Shore Line East - True","Northeast Regional - Light (<15), New Haven Line (Main Branch) - Heavy (<70), New Haven Line (Waterbury Branch) - Light (<15), Shore Line East - Minimal (<5) (Peak Hours Only)",TRUE,None,TRUE,Built,1975,https://en.wikipedia.org/wiki/Bridgeport_station_(Connecticut),"<a href=""https://en.wikipedia.org/wiki/Bridgeport_station_(Connecticut)"" target=""_blank"">Bridgeport</a>"
-73.235302,41.160085,1007,Fairfield Metro,"Fairfield, CT",,FALSE,Metro-North Railroad,MA03,FALSE,New Haven Line (Metro-North Railroad),Main Branch (New Haven Line),FALSE,Heavy (<70),FALSE,None,TRUE,Built,2011,https://en.wikipedia.org/wiki/Fairfield_Metro_station,"<a href=""https://en.wikipedia.org/wiki/Fairfield_Metro_station"" target=""_blank"">Fairfield Metro</a>"
-73.258294,41.142669,1008,Farifield,"Fairfield, CT",,FALSE,Metro-North Railroad,MA03,FALSE,New Haven Line (Metro-North Railroad),Main Branch (New Haven Line),FALSE,Heavy (<70),FALSE,None,FALSE,Built,1882,https://en.wikipedia.org/wiki/Fairfield_station_(Metro-North),"<a href=""https://en.wikipedia.org/wiki/Fairfield_station_(Metro-North)"" target=""_blank"">Farifield</a>"
-73.287687,41.135327,1009,Southport,"Southport, CT",,FALSE,Metro-North Railroad,MA03,FALSE,New Haven Line (Metro-North Railroad),Main Branch (New Haven Line),FALSE,Medium (<35),FALSE,None,FALSE,Built,1884,https://en.wikipedia.org/wiki/Southport_station_(Metro-North),"<a href=""https://en.wikipedia.org/wiki/Southport_station_(Metro-North)"" target=""_blank"">Southport</a>"
-73.314793,41.122275,1010,Green's Farms,"Westport, CT",,FALSE,Metro-North Railroad,MA03,FALSE,New Haven Line (Metro-North Railroad),Main Branch (New Haven Line),FALSE,Medium (<35),FALSE,None,FALSE,Built,,https://en.wikipedia.org/wiki/Green%27s_Farms_station,"<a href=""https://en.wikipedia.org/wiki/Green%27s_Farms_station"" target=""_blank"">Green's Farms</a>"
-73.371168,41.118787,1011,Westport / Saugatuck,"Westport, CT",Saugatuck,FALSE,Metro-North Railroad,MA03,FALSE,New Haven Line (Metro-North Railroad),Main Branch (New Haven Line),FALSE,Heavy (<70),FALSE,None,TRUE,Built,,https://en.wikipedia.org/wiki/Westport_station_(Metro-North),"<a href=""https://en.wikipedia.org/wiki/Westport_station_(Metro-North)"" target=""_blank"">Westport / Saugatuck</a>"
-73.404057,41.104011,1012,East Norwalk,"Norwalk, CT",East Norwalk,FALSE,Metro-North Railroad,MA03,FALSE,New Haven Line (Metro-North Railroad),Main Branch (New Haven Line),FALSE,Medium (<35),FALSE,None,FALSE,Built,,https://en.wikipedia.org/wiki/East_Norwalk_station,"<a href=""https://en.wikipedia.org/wiki/East_Norwalk_station"" target=""_blank"">East Norwalk</a>"
-73.421721,41.095635,1013,South Norwalk,"Norwalk, CT",South Norwalk,FALSE,Metro-North Railroad,MA03,FALSE,New Haven Line (Metro-North Railroad),"Main Branch (New Haven Line), Danbury Branch (New Haven Line)","New Haven Line (Main Branch) - False, New Haven Line (Danbury Branch) - False","New Haven Line (Main Branch) - Heavy (<70), New Haven Line (Danbury Branch) - Light (<15)",TRUE,None,TRUE,Built,1994,https://en.wikipedia.org/wiki/South_Norwalk_station,"<a href=""https://en.wikipedia.org/wiki/South_Norwalk_station"" target=""_blank"">South Norwalk</a>"
-73.444271,41.077488,1014,Rowayton,"Norwalk, CT",Rowayton,FALSE,Metro-North Railroad,MA03,FALSE,New Haven Line (Metro-North Railroad),Main Branch (New Haven Line),FALSE,Medium (<35),FALSE,None,FALSE,Built,,https://en.wikipedia.org/wiki/Rowayton_station,"<a href=""https://en.wikipedia.org/wiki/Rowayton_station"" target=""_blank"">Rowayton</a>"
-73.47169,41.076885,1015,Darien,"Darien, CT",,FALSE,Metro-North Railroad,MA03,FALSE,New Haven Line (Metro-North Railroad),Main Branch (New Haven Line),FALSE,Heavy (<70),FALSE,None,TRUE,Built,1890s,https://en.wikipedia.org/wiki/Darien_station,"<a href=""https://en.wikipedia.org/wiki/Darien_station"" target=""_blank"">Darien</a>"
-73.496674,41.068795,1016,Noroton Heights,"Darien, CT",,FALSE,Metro-North Railroad,MA03,FALSE,New Haven Line (Metro-North Railroad),Main Branch (New Haven Line),FALSE,Medium (<35),FALSE,None,FALSE,Built,,https://en.wikipedia.org/wiki/Noroton_Heights_station,"<a href=""https://en.wikipedia.org/wiki/Noroton_Heights_station"" target=""_blank"">Noroton Heights</a>"
-73.541886,41.04669,1017,Stamford,"Stamford, CT",Downtown Stamford,TRUE,"Amtrak, Metro-North Railroad, CTrail","NE01, NE05, MA03",TRUE,"Acela Express (Amtrak), Northeast Regional (Amtrak), New Haven Line (Metro-North Railroad), Shore Line East (CTrail)","Main Branch (New Haven Line), Danbury Branch (New Haven Line), New Canaan Branch (New Haven Line)","Acela Express - False, Northeast Regional - False, New Haven Line (Main Branch) - False, New Haven Line (Danbury Branch) - True, New Haven Line (New Canaan Branch) - False, Shore Line East - True","Acela Express - Light (<15), Northeast Regional - Light (<15), New Haven Line (Main Branch) - Constant (>60), New Haven Line (Danbury Branch) - Minimal (<5) (Peak Hours Only), New Haven Line (New Canaan Branch) - Medium (<35), Shore Line East - Minimal (<5) (Peak Hours Only)",TRUE,None,TRUE,Built,1987,https://en.wikipedia.org/wiki/Stamford_Transportation_Center,"<a href=""https://en.wikipedia.org/wiki/Stamford_Transportation_Center"" target=""_blank"">Stamford</a>"
-73.587549,41.031529,1018,Old Greenwich,"Greenwich, CT",Old Greenwich,FALSE,Metro-North Railroad,MA03,FALSE,New Haven Line (Metro-North Railroad),"Main Branch (New Haven Line), New Canaan Branch (New Haven Line)","New Haven Line (Main Branch) - False, New Haven Line (New Canaan Branch) - True","New Haven Line (Main Branch) - Heavy (<70), New Haven Line (New Canaan Branch) - Minimal (<5) (Peak Hours Only)",FALSE,None,FALSE,Built,1875,https://en.wikipedia.org/wiki/Old_Greenwich_station,"<a href=""https://en.wikipedia.org/wiki/Old_Greenwich_station"" target=""_blank"">Old Greenwich</a>"
-73.567963,41.033099,1019,Riverside,"Greenwich, CT",Riverside,FALSE,Metro-North Railroad,MA03,FALSE,New Haven Line (Metro-North Railroad),"Main Branch (New Haven Line), New Canaan Branch (New Haven Line)","New Haven Line (Main Branch) - False, New Haven Line (New Canaan Branch) - True","New Haven Line (Main Branch) - Heavy (<70), New Haven Line (New Canaan Branch) - Minimal (<5) (Peak Hours Only)",FALSE,None,FALSE,Built,,https://en.wikipedia.org/wiki/Riverside_station_(Metro-North),"<a href=""https://en.wikipedia.org/wiki/Riverside_station_(Metro-North)"" target=""_blank"">Riverside</a>"
-73.599915,41.029623,1020,Cos Cob,"Greenwich, CT",Cos Cob,FALSE,Metro-North Railroad,MA03,FALSE,New Haven Line (Metro-North Railroad),"Main Branch (New Haven Line), New Canaan Branch (New Haven Line)","New Haven Line (Main Branch) - False, New Haven Line (New Canaan Branch) - True","New Haven Line (Main Branch) - Heavy (<70), New Haven Line (New Canaan Branch) - Minimal (<5) (Peak Hours Only)",FALSE,None,TRUE,Built,1890,https://en.wikipedia.org/wiki/Cos_Cob_station,"<a href=""https://en.wikipedia.org/wiki/Cos_Cob_station"" target=""_blank"">Cos Cob</a>"
-73.625248,41.021129,1021,Greenwich,"Greenwich, CT",Central Greenwich,FALSE,Metro-North Railroad,MA03,FALSE,New Haven Line (Metro-North Railroad),"Main Branch (New Haven Line), New Canaan Branch (New Haven Line)","New Haven Line (Main Branch) - False, New Haven Line (New Canaan Branch) - True","New Haven Line (Main Branch) - Heavy (<70), New Haven Line (New Canaan Branch) - Minimal (<5) (Peak Hours Only)",TRUE,None,TRUE,Built,1970,https://en.wikipedia.org/wiki/Greenwich_station_(Metro-North),"<a href=""https://en.wikipedia.org/wiki/Greenwich_station_(Metro-North)"" target=""_blank"">Greenwich</a>"
-73.520016,41.071165,1022,Glenbrook,"Stamford, CT",Glenbrook,FALSE,Metro-North Railroad,MA03,FALSE,New Haven Line (Metro-North Railroad),New Canaan Branch (New Haven Line),FALSE,Medium (<35),FALSE,None,TRUE,Built,,https://en.wikipedia.org/wiki/Glenbrook_station_(Metro-North),"<a href=""https://en.wikipedia.org/wiki/Glenbrook_station_(Metro-North)"" target=""_blank"">Glenbrook</a>"
-73.517732,41.089049,1023,Springdale,"Stamford, CT",Springdale,FALSE,Metro-North Railroad,MA03,FALSE,New Haven Line (Metro-North Railroad),New Canaan Branch (New Haven Line),FALSE,Medium (<35),FALSE,None,TRUE,Built,1972,https://en.wikipedia.org/wiki/Springdale_station,"<a href=""https://en.wikipedia.org/wiki/Springdale_station"" target=""_blank"">Springdale</a>"
-73.497907,41.116418,1024,Talmadge Hill,"New Canaan, CT",Talmadge Hill,FALSE,Metro-North Railroad,MA03,FALSE,New Haven Line (Metro-North Railroad),New Canaan Branch (New Haven Line),FALSE,Medium (<35),FALSE,None,TRUE,Built,,https://en.wikipedia.org/wiki/Talmadge_Hill_station,"<a href=""https://en.wikipedia.org/wiki/Talmadge_Hill_station"" target=""_blank"">Talmadge Hill</a>"
-73.496335,41.145833,1025,New Canaan,"New Canaan, CT",,FALSE,Metro-North Railroad,MA03,FALSE,New Haven Line (Metro-North Railroad),New Canaan Branch (New Haven Line),FALSE,Medium (<35),TRUE,None,TRUE,Built,,https://en.wikipedia.org/wiki/New_Canaan_station,"<a href=""https://en.wikipedia.org/wiki/New_Canaan_station"" target=""_blank"">New Canaan</a>"
-73.427722,41.146405,1026,Merritt 7,"Norwalk, CT",,FALSE,Metro-North Railroad,MA03,FALSE,New Haven Line (Metro-North Railroad),Danbury Branch (New Haven Line),FALSE,Light (<15),FALSE,None,FALSE,Built,1985,https://en.wikipedia.org/wiki/Merritt_7_station,"<a href=""https://en.wikipedia.org/wiki/Merritt_7_station"" target=""_blank"">Merritt 7</a>"
-73.431936,41.195787,1027,Wilton,"Wilton, CT",,FALSE,Metro-North Railroad,MA03,FALSE,New Haven Line (Metro-North Railroad),Danbury Branch (New Haven Line),FALSE,Light (<15),FALSE,None,TRUE,Built,,https://en.wikipedia.org/wiki/Wilton_station_(Metro-North),"<a href=""https://en.wikipedia.org/wiki/Wilton_station_(Metro-North)"" target=""_blank"">Wilton</a>"
-73.426613,41.21651,1028,Cannondale,"Wilton, CT",Cannondale,FALSE,Metro-North Railroad,MA03,FALSE,New Haven Line (Metro-North Railroad),Danbury Branch (New Haven Line),FALSE,Light (<15),FALSE,None,TRUE,Built,1890s,https://en.wikipedia.org/wiki/Cannondale_station,"<a href=""https://en.wikipedia.org/wiki/Cannondale_station"" target=""_blank"">Cannondale</a>"
-73.440717,41.266768,1029,Branchville,"Ridgefield, CT",Branchville,FALSE,Metro-North Railroad,MA03,FALSE,New Haven Line (Metro-North Railroad),Danbury Branch (New Haven Line),FALSE,Light (<15),FALSE,None,TRUE,Built,1905,https://en.wikipedia.org/wiki/Branchville_station,"<a href=""https://en.wikipedia.org/wiki/Branchville_station"" target=""_blank"">Branchville</a>"
-73.435009,41.324826,1030,Redding,"Redding, CT",,FALSE,Metro-North Railroad,MA03,FALSE,New Haven Line (Metro-North Railroad),Danbury Branch (New Haven Line),FALSE,Light (<15),FALSE,None,TRUE,Built,,https://en.wikipedia.org/wiki/Redding_station_(Metro-North),"<a href=""https://en.wikipedia.org/wiki/Redding_station_(Metro-North)"" target=""_blank"">Redding</a>"
-73.418155,41.376166,1031,Bethel,"Bethel, CT",,FALSE,Metro-North Railroad,MA03,FALSE,New Haven Line (Metro-North Railroad),Danbury Branch (New Haven Line),FALSE,Light (<15),FALSE,None,TRUE,Built,1996,https://en.wikipedia.org/wiki/Bethel_station,"<a href=""https://en.wikipedia.org/wiki/Bethel_station"" target=""_blank"">Bethel</a>"
-73.448822,41.396008,1032,Danbury,"Danbury, CT",,FALSE,Metro-North Railroad,MA03,FALSE,New Haven Line (Metro-North Railroad),Danbury Branch (New Haven Line),FALSE,Light (<15),TRUE,None,TRUE,Built,1996,https://en.wikipedia.org/wiki/Danbury_station,"<a href=""https://en.wikipedia.org/wiki/Danbury_station"" target=""_blank"">Danbury</a>"
-73.083549,41.320195,1033,Derby-Shelton,"Derby, CT",,FALSE,Metro-North Railroad,MA03,FALSE,New Haven Line (Metro-North Railroad),Waterbury Branch (New Haven Line),TRUE,Light (<15),FALSE,None,FALSE,Built,,https://en.wikipedia.org/wiki/Derby–Shelton_station,"<a href=""https://en.wikipedia.org/wiki/Derby–Shelton_station"" target=""_blank"">Derby-Shelton</a>"
-73.079985,41.344142,1034,Ansonia,"Ansonia, CT",,FALSE,Metro-North Railroad,MA03,FALSE,New Haven Line (Metro-North Railroad),Waterbury Branch (New Haven Line),TRUE,Light (<15),FALSE,None,FALSE,Built,,https://en.wikipedia.org/wiki/Ansonia_station,"<a href=""https://en.wikipedia.org/wiki/Ansonia_station"" target=""_blank"">Ansonia</a>"
-73.072381,41.39529,1035,Seymour,"Seymour, CT",,FALSE,Metro-North Railroad,MA03,FALSE,New Haven Line (Metro-North Railroad),Waterbury Branch (New Haven Line),TRUE,Light (<15),FALSE,None,FALSE,Built,,https://en.wikipedia.org/wiki/Seymour_station,"<a href=""https://en.wikipedia.org/wiki/Seymour_station"" target=""_blank"">Seymour</a>"
-73.063147,41.440572,1036,Beacon Falls,"Beacon Falls, CT",,FALSE,Metro-North Railroad,MA03,FALSE,New Haven Line (Metro-North Railroad),Waterbury Branch (New Haven Line),TRUE,Light (<15),FALSE,None,FALSE,Built,,https://en.wikipedia.org/wiki/Beacon_Falls_station,"<a href=""https://en.wikipedia.org/wiki/Beacon_Falls_station"" target=""_blank"">Beacon Falls</a>"
-73.052237,41.491847,1037,Naugatuck,"Naugatuck, CT",,FALSE,Metro-North Railroad,MA03,FALSE,New Haven Line (Metro-North Railroad),Waterbury Branch (New Haven Line),TRUE,Light (<15),FALSE,None,FALSE,Built,1911,https://en.wikipedia.org/wiki/Naugatuck_station,"<a href=""https://en.wikipedia.org/wiki/Naugatuck_station"" target=""_blank"">Naugatuck</a>"
-73.047052,41.554399,1038,Waterbury,"Waterbury, CT",,FALSE,Metro-North Railroad,MA03,FALSE,New Haven Line (Metro-North Railroad),Waterbury Branch (New Haven Line),TRUE,Light (<15),TRUE,None,TRUE,Built,1909,https://en.wikipedia.org/wiki/Waterbury_station,"<a href=""https://en.wikipedia.org/wiki/Waterbury_station"" target=""_blank"">Waterbury</a>"
-73.000127,41.245043,1039,Orange (Planned),"Orange, CT",,FALSE,Metro-North Railroad,MA03,FALSE,New Haven Line (Metro-North Railroad),,,,FALSE,None,,Planned,,https://en.wikipedia.org/wiki/Orange_station_(Metro-North),"<a href=""https://en.wikipedia.org/wiki/Orange_station_(Metro-North)"" target=""_blank"">Orange (Planned)</a>"
-73.173841,41.185897,1040,Barnum (Planned),"Bridgeport, CT",,FALSE,Metro-North Railroad,MA03,FALSE,New Haven Line (Metro-North Railroad),,,,FALSE,None,,Planned,,https://en.wikipedia.org/wiki/Barnum_station,"<a href=""https://en.wikipedia.org/wiki/Barnum_station"" target=""_blank"">Barnum (Planned)</a>"
-72.817408,41.274764,1051,Branford,"Branford, CT",,FALSE,CTrail,NE05,FALSE,Shore Line East (CTrail),,FALSE,Medium (<35),FALSE,None,TRUE,Built,2005,https://en.wikipedia.org/wiki/Branford_station,"<a href=""https://en.wikipedia.org/wiki/Branford_station"" target=""_blank"">Branford</a>"
-72.673724,41.275698,1052,Guilford,"Guilford, CT",,FALSE,CTrail,NE05,FALSE,Shore Line East (CTrail),,FALSE,Medium (<35),FALSE,None,TRUE,Built,2005,https://en.wikipedia.org/wiki/Guilford_station,"<a href=""https://en.wikipedia.org/wiki/Guilford_station"" target=""_blank"">Guilford</a>"
-72.599525,41.283616,1053,Madison,"Madison, CT",,FALSE,CTrail,NE05,FALSE,Shore Line East (CTrail),,FALSE,Light (<15),FALSE,None,TRUE,Built,2008,https://en.wikipedia.org/wiki/Madison_station_(Connecticut),"<a href=""https://en.wikipedia.org/wiki/Madison_station_(Connecticut)"" target=""_blank"">Madison</a>"
-72.52894,41.279527,1054,Clinton,"Clinton, CT",,FALSE,CTrail,NE05,FALSE,Shore Line East (CTrail),,FALSE,Light (<15),FALSE,None,TRUE,Built,2005,https://en.wikipedia.org/wiki/Clinton_station_(Connecticut),"<a href=""https://en.wikipedia.org/wiki/Clinton_station_(Connecticut)"" target=""_blank"">Clinton</a>"
-72.447814,41.288869,1055,Westbrook,"Westbrook, CT",,FALSE,CTrail,NE05,FALSE,Shore Line East (CTrail),,FALSE,Medium (<35),FALSE,None,TRUE,Built,2014,https://en.wikipedia.org/wiki/Westbrook_station_(Connecticut),"<a href=""https://en.wikipedia.org/wiki/Westbrook_station_(Connecticut)"" target=""_blank"">Westbrook</a>"
-72.377503,41.300311,1056,Old Saybrook,"Old Saybrook, CT",,FALSE,"Amtrak, CTrail","NE05, NE01",FALSE,"Northeast Regional (Amtrak), Shore Line East (CTrail)",Boston Branch (Northeast Regional),"Northeast Regional (Boston Branch) - False, Shore Line East - False","Northeast Regional (Boston Branch) - Light (<15), Shore Line East - Medium (<35)",TRUE,None,TRUE,Built,2002,https://en.wikipedia.org/wiki/Old_Saybrook_station,"<a href=""https://en.wikipedia.org/wiki/Old_Saybrook_station"" target=""_blank"">Old Saybrook</a>"
-72.092807,41.354153,1057,New London,"New London, CT",,FALSE,"Amtrak, CTrail","NE05, NE01",FALSE,"Acela Express (Amtrak), Northeast Regional (Amtrak), Shore Line East (CTrail)",Boston Branch (Northeast Regional),"Acela Express - True, Northeast Regional (Boston Branch) - False, Shore Line East - True","Acela Express - Minimal (<5), Northeast Regional (Boston Branch) - Light (<15), Shore Line East - Minimal (<5) (Peak Hours Only)",TRUE,None,TRUE,Built,1887,https://en.wikipedia.org/wiki/New_London_Union_Station,"<a href=""https://en.wikipedia.org/wiki/New_London_Union_Station"" target=""_blank"">New London</a>"
-72.878084,41.378002,1058,North Haven (Planned),"North Haven, CT",,FALSE,CTrail,NE05,FALSE,Hartford Line (CTrail),,,,FALSE,None,,Under Construction,,https://en.wikipedia.org/wiki/North_Haven_station,"<a href=""https://en.wikipedia.org/wiki/North_Haven_station"" target=""_blank"">North Haven (Planned)</a>"
-72.822851,41.461548,1059,Wallingford,"Wallingford, CT",,FALSE,"Amtrak, CTrail","NE05, NE01",TRUE,"Northeast Regional (Amtrak), Valley Flyer (Amtrak), Vermonter (Amtrak), Hartford Line (CTrail)",Springfield Branch (Northeast Regional),"Northeast Regional (Springfield Branch) - True, Valley Flyer - False, Hartford Line - False","Northeast Regional (Springfield Branch) - Minimal (<5), Valley Flyer - Minimal (<5), Hartford Line - Light (<15)",FALSE,None,TRUE,Built,2017,https://en.wikipedia.org/wiki/Wallingford_station_(Connecticut),"<a href=""https://en.wikipedia.org/wiki/Wallingford_station_(Connecticut)"" target=""_blank"">Wallingford</a>"
-72.801416,41.538974,1060,Meriden,"Meriden, CT",,FALSE,"Amtrak, CTrail","NE05, NE01",TRUE,"Northeast Regional (Amtrak), Valley Flyer (Amtrak), Vermonter (Amtrak), Hartford Line (CTrail)",Springfield Branch (Northeast Regional),"Northeast Regional (Springfield Branch) - True, Valley Flyer - False, Hartford Line - False","Northeast Regional (Springfield Branch) - Minimal (<5), Valley Flyer - Minimal (<5), Hartford Line - Light (<15)",FALSE,None,FALSE,Built,2017,https://en.wikipedia.org/wiki/Meriden_Transit_Center,"<a href=""https://en.wikipedia.org/wiki/Meriden_Transit_Center"" target=""_blank"">Meriden</a>"
-72.765207,41.63602,1061,Berlin,"Berlin, CT",,FALSE,"Amtrak, CTrail","NE05, NE01",TRUE,"Northeast Regional (Amtrak), Valley Flyer (Amtrak), Vermonter (Amtrak), Hartford Line (CTrail)",Springfield Branch (Northeast Regional),"Northeast Regional (Springfield Branch) - True, Valley Flyer - False, Hartford Line - False","Northeast Regional (Springfield Branch) - Minimal (<5), Valley Flyer - Minimal (<5), Hartford Line - Light (<15)",FALSE,None,FALSE,Built,2018,https://en.wikipedia.org/wiki/Berlin_station_(Connecticut),"<a href=""https://en.wikipedia.org/wiki/Berlin_station_(Connecticut)"" target=""_blank"">Berlin</a>"
-72.749047,41.695015,1062,Newington (Planned),"Newington, CT",,FALSE,CTrail,NE05,FALSE,Hartford Line (CTrail),,,,FALSE,None,,Planned,,https://en.wikipedia.org/wiki/Newington_Junction_station,"<a href=""https://en.wikipedia.org/wiki/Newington_Junction_station"" target=""_blank"">Newington (Planned)</a>"
-72.715157,41.742697,1063,West Hartford (Planned),"West Hartford, CT",,FALSE,CTrail,NE05,FALSE,Hartford Line (CTrail),,,,FALSE,None,,Planned,,https://en.wikipedia.org/wiki/Flatbush_Avenue_station_(Connecticut),"<a href=""https://en.wikipedia.org/wiki/Flatbush_Avenue_station_(Connecticut)"" target=""_blank"">West Hartford (Planned)</a>"
-72.681792,41.768853,1064,Hartford,"Hartford, CT",,FALSE,"Amtrak, CTrail","NE05, NE01",TRUE,"Northeast Regional (Amtrak), Valley Flyer (Amtrak), Vermonter (Amtrak), Hartford Line (CTrail)",Springfield Branch (Northeast Regional),"Northeast Regional (Springfield Branch) - True, Valley Flyer - False, Hartford Line - False","Northeast Regional (Springfield Branch) - Minimal (<5), Valley Flyer - Minimal (<5), Hartford Line - Light (<15)",FALSE,None,TRUE,Built,1914,https://en.wikipedia.org/wiki/Hartford_Union_Station,"<a href=""https://en.wikipedia.org/wiki/Hartford_Union_Station"" target=""_blank"">Hartford</a>"
-72.642121,41.852163,1065,Windsor,"Windsor, CT",,FALSE,"Amtrak, CTrail","NE05, NE01",TRUE,"Northeast Regional (Amtrak), Valley Flyer (Amtrak), Vermonter (Amtrak), Hartford Line (CTrail)",Springfield Branch (Northeast Regional),"Northeast Regional (Springfield Branch) - True, Valley Flyer - False, Hartford Line - True","Northeast Regional (Springfield Branch) - Minimal (<5), Valley Flyer - Minimal (<5), Hartford Line - Light (<15)",FALSE,None,TRUE,Built,1988,https://en.wikipedia.org/wiki/Windsor_station_(Connecticut),"<a href=""https://en.wikipedia.org/wiki/Windsor_station_(Connecticut)"" target=""_blank"">Windsor</a>"
-72.62595,41.91391,1066,Windsor Locks,"Windsor Locks, CT",,FALSE,"Amtrak, CTrail","NE05, NE01",TRUE,"Northeast Regional (Amtrak), Valley Flyer (Amtrak), Vermonter (Amtrak), Hartford Line (CTrail)",Springfield Branch (Northeast Regional),"Northeast Regional (Springfield Branch) - True, Valley Flyer - False, Hartford Line - True","Northeast Regional (Springfield Branch) - Minimal (<5), Valley Flyer - Minimal (<5), Hartford Line - Light (<15)",FALSE,None,TRUE,Built,1981,https://en.wikipedia.org/wiki/Windsor_Locks_station,"<a href=""https://en.wikipedia.org/wiki/Windsor_Locks_station"" target=""_blank"">Windsor Locks</a>"
-72.604343,41.999037,1067,Enfield (Planned),"Enfield, CT",,FALSE,CTrail,NE05,FALSE,Hartford Line (CTrail),,,,FALSE,None,,Under Construction,,https://en.wikipedia.org/wiki/Enfield_station_(Connecticut),"<a href=""https://en.wikipedia.org/wiki/Enfield_station_(Connecticut)"" target=""_blank"">Enfield (Planned)</a>"
-72.593568,42.106036,1068,Springfield,"Springfield, MA",,FALSE,"Amtrak, CTrail","NE05, NE01",TRUE,"Lake Shore Limited (Amtrak), Northeast Regional (Amtrak), Valley Flyer (Amtrak), Vermonter (Amtrak), Hartford Line (CTrail)","Springfield Branch (Northeast Regional), Boston Service (Lake Shore Limited)","Lake Shore Limited - True, Northeast Regional (Springfield Branch) - True, Valley Flyer - False, Hartford Line - True","Lake Shore Limited - Minimal (<5), Northeast Regional (Springfield Branch) - Minimal (<5), Valley Flyer - Minimal (<5), Hartford Line - Light (<15)",TRUE,None,TRUE,Built,1926,https://en.wikipedia.org/wiki/Springfield_Union_Station_(Massachusetts),"<a href=""https://en.wikipedia.org/wiki/Springfield_Union_Station_(Massachusetts)"" target=""_blank"">Springfield</a>"
-71.140703,42.396182,1080,Alewife,"Cambridge, MA",North Cambridge,FALSE,MBTA Subway,NE02,FALSE,Red Line (MBTA Subway),"Ashmont (Red Line), Braintree (Red Line)","Red Line (Ashmont) - False, Red Line (Braintree) - False",Constant (>70),TRUE,None,TRUE,Built,1985,https://en.wikipedia.org/wiki/Alewife_station,"<a href=""https://en.wikipedia.org/wiki/Alewife_station"" target=""_blank"">Alewife</a>"
-71.122528,42.396839,1081,Davis,"Somerville, MA",Davis Square,FALSE,MBTA Subway,NE02,FALSE,Red Line (MBTA Subway),"Ashmont (Red Line), Braintree (Red Line)","Red Line (Ashmont) - False, Red Line (Braintree) - False",Constant (>70),FALSE,None,TRUE,Built,1984,https://en.wikipedia.org/wiki/Davis_station_(MBTA),"<a href=""https://en.wikipedia.org/wiki/Davis_station_(MBTA)"" target=""_blank"">Davis</a>"
-71.118972,42.38821,1082,Porter,"Cambridge, MA",Porter Square,TRUE,"MBTA Commuter Rail, MBTA Subway","NE02, NE03",FALSE,"Red Line (MBTA Subway), Fitchburg Line (MBTA Commuter Rail)","Ashmont (Red Line), Braintree (Red Line)","Fitchburg Line - False, Red Line - False","Fitchburg Line - Medium (<35), Red Line (Ashmont) - Constant (>70), Red Line (Braintree) - Constant (>70)",FALSE,None,TRUE,Built,1984,https://en.wikipedia.org/wiki/Porter_station,"<a href=""https://en.wikipedia.org/wiki/Porter_station"" target=""_blank"">Porter</a>"
-71.118623,42.373501,1083,Harvard,"Cambridge, MA",Harvard Square,FALSE,MBTA Subway,NE02,FALSE,Red Line (MBTA Subway),"Ashmont (Red Line), Braintree (Red Line)","Red Line (Ashmont) - False, Red Line (Braintree) - False",Constant (>70),FALSE,None,TRUE,Built,1983,https://en.wikipedia.org/wiki/Harvard_station,"<a href=""https://en.wikipedia.org/wiki/Harvard_station"" target=""_blank"">Harvard</a>"
-71.102765,42.364864,1084,Central,"Cambridge, MA",Central Square,FALSE,MBTA Subway,NE02,FALSE,Red Line (MBTA Subway),"Ashmont (Red Line), Braintree (Red Line)","Red Line (Ashmont) - False, Red Line (Braintree) - False",Constant (>70),FALSE,None,TRUE,Built,1912,https://en.wikipedia.org/wiki/Central_station_(MBTA),"<a href=""https://en.wikipedia.org/wiki/Central_station_(MBTA)"" target=""_blank"">Central</a>"
-71.085893,42.36236,1085,Kendal / MIT,"Cambridge, MA",Kendall Square,FALSE,MBTA Subway,NE02,FALSE,Red Line (MBTA Subway),"Ashmont (Red Line), Braintree (Red Line)","Red Line (Ashmont) - False, Red Line (Braintree) - False",Constant (>70),FALSE,None,TRUE,Built,1988,https://en.wikipedia.org/wiki/Kendall/MIT_station,"<a href=""https://en.wikipedia.org/wiki/Kendall/MIT_station"" target=""_blank"">Kendal / MIT</a>"
-71.07091,42.361162,1086,Charles / MGH,"Boston, MA",West End,FALSE,MBTA Subway,NE02,FALSE,Red Line (MBTA Subway),"Ashmont (Red Line), Braintree (Red Line)","Red Line (Ashmont) - False, Red Line (Braintree) - False",Constant (>70),FALSE,None,TRUE,Built,1932,https://en.wikipedia.org/wiki/Charles/MGH_station,"<a href=""https://en.wikipedia.org/wiki/Charles/MGH_station"" target=""_blank"">Charles / MGH</a>"
-71.062266,42.356255,1087,Park Street,"Boston, MA",Downtown,FALSE,MBTA Subway,NE02,TRUE,"Green Line (MBTA Subway), Red Line (MBTA Subway)","B (Green Line), C (Green Line), D (Green Line), E (Green Line), Ashmont (Red Line), Braintree (Red Line)","Green Line (B) - False, Green Line (C) - False, Green Line (D) - False, Green Line (E) - False, Red Line (Ashmont) - False, Red Line (Braintree) - False","Green Line (B) - Constant (>70), Green Line (C) - Constant (>70), Green Line (D) - Constant (>70), Green Line (E) - Constant (>70), Red Line (Ashmont) - Constant (>70), Red Line (Braintree) - Constant (>70)",TRUE,Downtown Crossing (MBTA Subway),TRUE,Built,1897,https://en.wikipedia.org/wiki/Park_Street_station_(MBTA),"<a href=""https://en.wikipedia.org/wiki/Park_Street_station_(MBTA)"" target=""_blank"">Park Street</a>"
-71.060496,42.355395,1088,Downtown Crossing,"Boston, MA",Downtown,FALSE,MBTA Subway,NE02,TRUE,"Orange Line (MBTA Subway), Red Line (MBTA Subway)","Ashmont (Red Line), Braintree (Red Line)","Orange Line - False, Red Line (Ashmont) - False, Red Line (Braintree) - False","Orange Line - Constant (>70), Red Line (Ashmont) - Constant (>70), Red Line (Braintree) - Constant (>70)",FALSE,Park Street (MBTA Subway),TRUE,Built,1908,https://en.wikipedia.org/wiki/Downtown_Crossing_station,"<a href=""https://en.wikipedia.org/wiki/Downtown_Crossing_station"" target=""_blank"">Downtown Crossing</a>"
-71.054904,42.352418,1089,South Station (MBTA Subway),"Boston, MA",Downtown,TRUE,MBTA Subway,NE02,FALSE,Red Line (MBTA Subway),"Ashmont (Red Line), Braintree (Red Line)","Red Line (Ashmont) - False, Red Line (Braintree) - False","Red Line (Ashmont) - Constant (>70), Red Line (Braintree) - Constant (>70)",FALSE,"South Station (Amtrak, MBTA Commuter Rail, CapeFLYER)",TRUE,Built,1916,https://en.wikipedia.org/wiki/South_Station_(subway),"<a href=""https://en.wikipedia.org/wiki/South_Station_(subway)"" target=""_blank"">South Station (MBTA Subway)</a>"
-71.057167,42.342644,1090,Broadway,"Boston, MA",South Boston,FALSE,MBTA Subway,NE02,FALSE,Red Line (MBTA Subway),"Ashmont (Red Line), Braintree (Red Line)","Red Line (Ashmont) - False, Red Line (Braintree) - False","Red Line (Ashmont) - Constant (>70), Red Line (Braintree) - Constant (>70)",FALSE,None,TRUE,Built,1917,https://en.wikipedia.org/wiki/Broadway_station_(MBTA),"<a href=""https://en.wikipedia.org/wiki/Broadway_station_(MBTA)"" target=""_blank"">Broadway</a>"
-71.057084,42.329947,1091,Andrew,"Boston, MA",South Boston,FALSE,MBTA Subway,NE02,FALSE,Red Line (MBTA Subway),"Ashmont (Red Line), Braintree (Red Line)","Red Line (Ashmont) - False, Red Line (Braintree) - False","Red Line (Ashmont) - Constant (>70), Red Line (Braintree) - Constant (>70)",FALSE,None,TRUE,Built,1918,https://en.wikipedia.org/wiki/Andrew_station,"<a href=""https://en.wikipedia.org/wiki/Andrew_station"" target=""_blank"">Andrew</a>"
-71.052388,42.320432,1092,JFK / UMass,"Boston, MA",Dorchester,TRUE,"MBTA Commuter Rail, MBTA Subway","NE02, NE03",TRUE,"Greenbush Line (MBTA Commuter Rail), Kingston/Plymouth Line (MBTA Commuter Rail), Middleborough/Lakeville Line (MBTA Commuter Rail), Red Line (MBTA Subway)","Ashmont (Red Line), Braintree (Red Line)","Greenbust Line - True, Kingston/Plymouth Line - True, Middleborough/Lakeville Line - True, Red Line (Ashmont) - False, Red Line (Braintree) - False","Greenbush Line - Minimal (<5), Kingston/Plymouth Line - Light (<15), Middleborough/Lakeville Line - Minimal (<5), Red Line (Ashmont) - Constant (>70), Red Line (Braintree) - Constant (>70)",FALSE,None,TRUE,Built,1988,https://en.wikipedia.org/wiki/JFK/UMass_station,"<a href=""https://en.wikipedia.org/wiki/JFK/UMass_station"" target=""_blank"">JFK / UMass</a>"
-71.053474,42.310753,1093,Savin Hill,"Boston, MA",Dorchester,FALSE,MBTA Subway,NE02,FALSE,Red Line (MBTA Subway),Ashmont (Red Line),FALSE,Constant (>70),FALSE,None,TRUE,Built,2005,https://en.wikipedia.org/wiki/Savin_Hill_station,"<a href=""https://en.wikipedia.org/wiki/Savin_Hill_station"" target=""_blank"">Savin Hill</a>"
-71.06173,42.300051,1094,Fields Corner,"Boston, MA",Dorchester,FALSE,MBTA Subway,NE02,FALSE,Red Line (MBTA Subway),Ashmont (Red Line),FALSE,Constant (>70),FALSE,None,TRUE,Built,2008,https://en.wikipedia.org/wiki/Fields_Corner_station,"<a href=""https://en.wikipedia.org/wiki/Fields_Corner_station"" target=""_blank"">Fields Corner</a>"
-71.0658,42.293098,1095,Shawmut,"Boston, MA",Dorchester,FALSE,MBTA Subway,NE02,FALSE,Red Line (MBTA Subway),Ashmont (Red Line),FALSE,Constant (>70),FALSE,None,TRUE,Built,2009,https://en.wikipedia.org/wiki/Shawmut_station,"<a href=""https://en.wikipedia.org/wiki/Shawmut_station"" target=""_blank"">Shawmut</a>"
-71.063171,42.283488,1096,Ashmont,"Boston, MA",Dorchester,FALSE,MBTA Subway,NE02,TRUE,"Red Line (MBTA Subway), Mattapan Trolley (MBTA Subway)",Ashmont (Red Line),FALSE,"Red Line (Ashmont) - Constant (>70), Mattapan Trolley - Constant (>70)",TRUE,None,TRUE,Built,2011,https://en.wikipedia.org/wiki/Ashmont_station,"<a href=""https://en.wikipedia.org/wiki/Ashmont_station"" target=""_blank"">Ashmont</a>"
-71.060263,42.279386,1097,Cedar Grove,"Boston, MA",Dorchester,FALSE,MBTA Subway,NE02,FALSE,Mattapan Trolley (MBTA Subway),,FALSE,Constant (>70),FALSE,None,TRUE,Built,1929,https://en.wikipedia.org/wiki/Cedar_Grove_station,"<a href=""https://en.wikipedia.org/wiki/Cedar_Grove_station"" target=""_blank"">Cedar Grove</a>"
-71.062711,42.272326,1098,Butler,"Boston, MA",Dorchester,FALSE,MBTA Subway,NE02,FALSE,Mattapan Trolley (MBTA Subway),,FALSE,Constant (>70),FALSE,None,TRUE,Built,1931,https://en.wikipedia.org/wiki/Butler_station_(MBTA),"<a href=""https://en.wikipedia.org/wiki/Butler_station_(MBTA)"" target=""_blank"">Butler</a>"
-71.067919,42.270331,1099,Milton,"Milton, MA",,FALSE,MBTA Subway,NE02,FALSE,Mattapan Trolley (MBTA Subway),,FALSE,Constant (>70),FALSE,None,TRUE,Built,1848,https://en.wikipedia.org/wiki/Milton_station_(MBTA),"<a href=""https://en.wikipedia.org/wiki/Milton_station_(MBTA)"" target=""_blank"">Milton</a>"
-71.073288,42.270064,1100,Central Avenue,"Milton, MA",,FALSE,MBTA Subway,NE02,FALSE,Mattapan Trolley (MBTA Subway),,FALSE,Constant (>70),FALSE,None,TRUE,Built,1882,https://en.wikipedia.org/wiki/Central_Avenue_station_(MBTA),"<a href=""https://en.wikipedia.org/wiki/Central_Avenue_station_(MBTA)"" target=""_blank"">Central Avenue</a>"
-71.081596,42.268307,1101,Valley Road,"Milton, MA",,FALSE,MBTA Subway,NE02,FALSE,Mattapan Trolley (MBTA Subway),,FALSE,Constant (>70),FALSE,None,FALSE,Built,1929,https://en.wikipedia.org/wiki/Valley_Road_station,"<a href=""https://en.wikipedia.org/wiki/Valley_Road_station"" target=""_blank"">Valley Road</a>"
-71.087121,42.26751,1102,Capen Street,"Milton, MA",,FALSE,MBTA Subway,NE02,FALSE,Mattapan Trolley (MBTA Subway),,FALSE,Constant (>70),FALSE,None,TRUE,Built,1929,https://en.wikipedia.org/wiki/Capen_Street_station,"<a href=""https://en.wikipedia.org/wiki/Capen_Street_station"" target=""_blank"">Capen Street</a>"
-71.092378,42.267558,1103,Mattapan,"Boston, MA",Mattapan,FALSE,MBTA Subway,NE02,FALSE,Mattapan Trolley (MBTA Subway),,FALSE,Constant (>70),TRUE,None,TRUE,Built,2007,https://en.wikipedia.org/wiki/Mattapan_station,"<a href=""https://en.wikipedia.org/wiki/Mattapan_station"" target=""_blank"">Mattapan</a>"
-71.03021,42.27589,1104,North Quincy,"Quincy, MA",North Quincy,FALSE,MBTA Subway,NE02,FALSE,Red Line (MBTA Subway),Braintree (Red Line),FALSE,Constant (>70),FALSE,None,TRUE,Built,1971,https://en.wikipedia.org/wiki/North_Quincy_station,"<a href=""https://en.wikipedia.org/wiki/North_Quincy_station"" target=""_blank"">North Quincy</a>"
-71.020339,42.266793,1105,Wollaston,"Quincy, MA",Wollaston,FALSE,MBTA Subway,NE02,FALSE,Red Line (MBTA Subway),Braintree (Red Line),FALSE,Constant (>70),FALSE,None,FALSE,Built,2019,https://en.wikipedia.org/wiki/Wollaston_station,"<a href=""https://en.wikipedia.org/wiki/Wollaston_station"" target=""_blank"">Wollaston</a>"
-71.005254,42.252004,1106,Quincy Center,"Quincy, MA",Quincy Center,TRUE,"MBTA Commuter Rail, MBTA Subway","NE02, NE03",TRUE,"Greenbush Line (MBTA Commuter Rail), Kingston/Plymouth Line (MBTA Commuter Rail), Middleborough/Lakeville Line (MBTA Commuter Rail), Red Line (MBTA Subway)",Braintree (Red Line),"Greenbush Line - False, Kingston/Plymouth Line - True, Middleborough/Lakeville Line - False, Red Line (Braintree) - False","Greenbush Line - Light (<15), Kingston/Plymouth Line - Minimal (<5), Middleborough/Lakeville Line - Light (<15), Red Line (Braintree) - Constant (>70)",FALSE,None,TRUE,Built,1971,https://en.wikipedia.org/wiki/Quincy_Center_station,"<a href=""https://en.wikipedia.org/wiki/Quincy_Center_station"" target=""_blank"">Quincy Center</a>"
-71.006695,42.233376,1107,Quincy Adams,"Quincy, MA",South Quincy,FALSE,MBTA Subway,NE02,FALSE,Red Line (MBTA Subway),Braintree (Red Line),FALSE,Constant (>70),FALSE,None,TRUE,Built,1983,https://en.wikipedia.org/wiki/Quincy_Adams_station,"<a href=""https://en.wikipedia.org/wiki/Quincy_Adams_station"" target=""_blank"">Quincy Adams</a>"
-71.001722,42.207554,1108,Braintree,"Braintree, MA",,TRUE,"CapeFLYER, MBTA Commuter Rail, MBTA Subway","NE02, NE03, NE04",TRUE,"CapeFLYER, Kingston/Plymouth Line (MBTA Commuter Rail), Red Line (MBTA Subway)",Braintree (Red Line),"CapeFLYER - True, Kingston/Plymouth Line - False, Middleborough/Lakeville Line - True, Red Line (Braintree) - False","CapeFLYER - Minimal (<5) (Weekends Only), Kingston/Plymouth Line - Light (<15), Middleborough/Lakeville Line - Light (<15), Red Line (Braintree) - Constant (>70)",TRUE,None,TRUE,Built,1980,https://en.wikipedia.org/wiki/Braintree_station_(MBTA),"<a href=""https://en.wikipedia.org/wiki/Braintree_station_(MBTA)"" target=""_blank"">Braintree</a>"
-70.991704,42.413471,1109,Wonderland,"Revere, MA",,FALSE,MBTA Subway,NE02,FALSE,Blue Line (MBTA Subway),,FALSE,Constant (>70),TRUE,None,TRUE,Built,1954,https://en.wikipedia.org/wiki/Wonderland_station,"<a href=""https://en.wikipedia.org/wiki/Wonderland_station"" target=""_blank"">Wonderland</a>"
-70.992642,42.407855,1110,Revere Beach,"Revere, MA",,FALSE,MBTA Subway,NE02,FALSE,Blue Line (MBTA Subway),,FALSE,Constant (>70),FALSE,None,TRUE,Built,1954,https://en.wikipedia.org/wiki/Revere_Beach_station,"<a href=""https://en.wikipedia.org/wiki/Revere_Beach_station"" target=""_blank"">Revere Beach</a>"
-70.992564,42.397292,1111,Beachmont,"Revere, MA",Beachmont,FALSE,MBTA Subway,NE02,FALSE,Blue Line (MBTA Subway),,FALSE,Constant (>70),FALSE,None,TRUE,Built,1995,https://en.wikipedia.org/wiki/Beachmont_station,"<a href=""https://en.wikipedia.org/wiki/Beachmont_station"" target=""_blank"">Beachmont</a>"
-70.997174,42.390483,1112,Suffolk Downs,"Boston, MA",East Boston,FALSE,MBTA Subway,NE02,FALSE,Blue Line (MBTA Subway),,FALSE,Constant (>70),FALSE,None,TRUE,Built,1952,https://en.wikipedia.org/wiki/Suffolk_Downs_station,"<a href=""https://en.wikipedia.org/wiki/Suffolk_Downs_station"" target=""_blank"">Suffolk Downs</a>"
-71.004799,42.38683,1113,Orient Heights,"Boston, MA",East Boston,FALSE,MBTA Subway,NE02,FALSE,Blue Line (MBTA Subway),,FALSE,Constant (>70),FALSE,None,TRUE,Built,2013,https://en.wikipedia.org/wiki/Orient_Heights_station,"<a href=""https://en.wikipedia.org/wiki/Orient_Heights_station"" target=""_blank"">Orient Heights</a>"
-71.02286,42.379699,1114,Wood Island,"Boston, MA",East Boston,FALSE,MBTA Subway,NE02,FALSE,Blue Line (MBTA Subway),,FALSE,Constant (>70),FALSE,None,TRUE,Built,1995,https://en.wikipedia.org/wiki/Wood_Island_station,"<a href=""https://en.wikipedia.org/wiki/Wood_Island_station"" target=""_blank"">Wood Island</a>"
-71.030362,42.374297,1115,Airport,"Boston, MA",East Boston,FALSE,MBTA Subway,NE02,FALSE,Blue Line (MBTA Subway),,FALSE,Constant (>70),FALSE,None,TRUE,Built,2004,https://en.wikipedia.org/wiki/Airport_station_(MBTA),"<a href=""https://en.wikipedia.org/wiki/Airport_station_(MBTA)"" target=""_blank"">Airport</a>"
-71.039618,42.36906,1116,Maverick,"Boston, MA",East Boston,FALSE,MBTA Subway,NE02,FALSE,Blue Line (MBTA Subway),,FALSE,Constant (>70),FALSE,None,TRUE,Built,2009,https://en.wikipedia.org/wiki/Maverick_station,"<a href=""https://en.wikipedia.org/wiki/Maverick_station"" target=""_blank"">Maverick</a>"
-71.051536,42.359645,1117,Aquarium,"Boston, MA",Downtown,FALSE,MBTA Subway,NE02,FALSE,Blue Line (MBTA Subway),,FALSE,Constant (>70),FALSE,None,TRUE,Built,2003,https://en.wikipedia.org/wiki/Aquarium_station_(MBTA),"<a href=""https://en.wikipedia.org/wiki/Aquarium_station_(MBTA)"" target=""_blank"">Aquarium</a>"
-71.057736,42.358787,1118,State Street,"Boston, MA",Downtown,FALSE,MBTA Subway,NE02,TRUE,"Blue Line (MBTA Subway), Orange Line (MBTA Subway)",,"Blue Line - False, Orange Line - False","Blue Line - Constant (>70), Orange Line - Constant (>70)",FALSE,None,TRUE,Built,2011,https://en.wikipedia.org/wiki/State_station,"<a href=""https://en.wikipedia.org/wiki/State_station"" target=""_blank"">State Street</a>"
-71.059424,42.359349,1119,Government Center,"Boston, MA",Downtown,FALSE,MBTA Subway,NE02,TRUE,"Blue Line (MBTA Subway), Green Line (MBTA Subway)","C (Green Line), D (Green Line), E (Green Line)","Green Line (C) - False, Green Line (D) - False Green Line (E) - False, Blue Line - False","Blue Line - Constant (>70), Green Line (C) - Constant (>70), Green Line (D) - Constant (>70), Green Line (E) - Constant (>70)",TRUE,None,TRUE,Built,2016,https://en.wikipedia.org/wiki/Government_Center_station_(MBTA),"<a href=""https://en.wikipedia.org/wiki/Government_Center_station_(MBTA)"" target=""_blank"">Government Center</a>"
-71.062123,42.361376,1120,Bowdoin,"Boston, MA",Beacon Hill,FALSE,MBTA Subway,NE02,FALSE,Blue Line (MBTA Subway),,FALSE,Constant (>70),TRUE,None,TRUE,Built,1968,https://en.wikipedia.org/wiki/Bowdoin_station,"<a href=""https://en.wikipedia.org/wiki/Bowdoin_station"" target=""_blank"">Bowdoin</a>"
-71.070998,42.437265,1121,Oak Grove,"Malden, MA",,FALSE,MBTA Subway,NE02,FALSE,Orange Line (MBTA Subway),,FALSE,Constant (>70),TRUE,None,TRUE,Built,1977,https://en.wikipedia.org/wiki/Oak_Grove_station,"<a href=""https://en.wikipedia.org/wiki/Oak_Grove_station"" target=""_blank"">Oak Grove</a>"
-71.074364,42.426624,1122,Malden Center,"Malden, MA",,TRUE,"MBTA Commuter Rail, MBTA Subway","NE02, NE03",FALSE,"Haverhill Line (MBTA Commuter Rail), Orange Line (MBTA Subway)",Main Line (Haverhill Line),"Haverhill Line (Main Line) - False, Orange Line - False","Haverhill Line (Main Line) - Medium (<35), Orange Line - Constant (>70)",FALSE,None,TRUE,Built,1975,https://en.wikipedia.org/wiki/Malden_Center_station,"<a href=""https://en.wikipedia.org/wiki/Malden_Center_station"" target=""_blank"">Malden Center</a>"
-71.077167,42.401634,1123,Wellington,"Medford, MA",,FALSE,MBTA Subway,NE02,FALSE,Orange Line (MBTA Subway),,FALSE,Constant (>70),FALSE,None,TRUE,Built,1975,https://en.wikipedia.org/wiki/Wellington_station_(MBTA),"<a href=""https://en.wikipedia.org/wiki/Wellington_station_(MBTA)"" target=""_blank"">Wellington</a>"
-71.077277,42.392653,1124,Assembly,"Somerville, MA",Assembly Square,FALSE,MBTA Subway,NE02,FALSE,Orange Line (MBTA Subway),,FALSE,Constant (>70),FALSE,None,TRUE,Built,2014,https://en.wikipedia.org/wiki/Assembly_station,"<a href=""https://en.wikipedia.org/wiki/Assembly_station"" target=""_blank"">Assembly</a>"
-71.077069,42.384163,1125,Sullivan Square,"Boston, MA",Charleston,FALSE,MBTA Subway,NE02,FALSE,Orange Line (MBTA Subway),,FALSE,Constant (>70),FALSE,None,TRUE,Built,1975,https://en.wikipedia.org/wiki/Sullivan_Square_station,"<a href=""https://en.wikipedia.org/wiki/Sullivan_Square_station"" target=""_blank"">Sullivan Square</a>"
-71.069801,42.373615,1126,Community College,"Boston, MA",Charleston,FALSE,MBTA Subway,NE02,FALSE,Orange Line (MBTA Subway),,FALSE,Constant (>70),FALSE,None,TRUE,Built,1975,https://en.wikipedia.org/wiki/Community_College_station,"<a href=""https://en.wikipedia.org/wiki/Community_College_station"" target=""_blank"">Community College</a>"
-71.0601,42.365303,1127,North Station (MBTA Subway),"Boston, MA",West End,TRUE,MBTA Subway,NE02,TRUE,"Green Line (MBTA Subway), Orange Line (MBTA Subway)","C (Green Line), E (Green Line)","Green Line (C) - False, Green Line (E) - False, Orange Line - False","Green Line (C) - Constant (>70), Green Line (E) - Constant (>70), Orange Line - Constant (>70)",TRUE,"North Station (Amtrak, MBTA Commuter Rail)",TRUE,Built,1975,https://en.wikipedia.org/wiki/North_Station,"<a href=""https://en.wikipedia.org/wiki/North_Station"" target=""_blank"">North Station (MBTA Subway)</a>"
-71.057723,42.36217,1128,Haymarket,"Boston, MA",Downtown,FALSE,MBTA Subway,NE02,TRUE,"Green Line (MBTA Subway), Orange Line (MBTA Subway)","C (Green Line), E (Green Line)","Green Line (C) - False, Green Line (E) - False, Orange Line - False","Green Line (C) - Constant (>70), Green Line (E) - Constant (>70), Orange Line - Constant (>70)",FALSE,None,TRUE,Built,1975,https://en.wikipedia.org/wiki/Haymarket_station_(MBTA),"<a href=""https://en.wikipedia.org/wiki/Haymarket_station_(MBTA)"" target=""_blank"">Haymarket</a>"
-71.06273,42.352239,1129,Chinatown,"Boston, MA",Chinatown,FALSE,MBTA Subway,NE02,FALSE,Orange Line (MBTA Subway),,FALSE,Constant (>70),FALSE,None,TRUE,Built,1908,https://en.wikipedia.org/wiki/Chinatown_station_(MBTA),"<a href=""https://en.wikipedia.org/wiki/Chinatown_station_(MBTA)"" target=""_blank"">Chinatown</a>"
-71.064104,42.349432,1130,Tufts Medical Center,"Boston, MA",Chinatown,FALSE,MBTA Subway,NE02,FALSE,Orange Line (MBTA Subway),,FALSE,Constant (>70),FALSE,None,TRUE,Built,1987,https://en.wikipedia.org/wiki/Tufts_Medical_Center_station,"<a href=""https://en.wikipedia.org/wiki/Tufts_Medical_Center_station"" target=""_blank"">Tufts Medical Center</a>"
-71.075094,42.347488,1131,Back Bay,"Boston, MA",Back Bay,TRUE,"Amtrak, MBTA Commuter Rail, MBTA Subway","NE01, NE02, NE03",TRUE,"Acela Express (Amtrak), Lake Shore Limited (Amtrak), Northeast Regional (Amtrak), Franklin/Foxboro Line (MBTA Commuter Rail), Framingham/Worcester Line (MBTA Commuter Rail), Needham Line (MBTA Commuter Rail), Providence/Stoughton Line (MBTA Commuter Rail), Orange Line (MBTA Subway)","Boston Branch (Northeast Regional), Providence Branch (Providence/Stoughton Line), Stoughton Branch (Providence/Stoughton Line), Boston Service (Lake Shore Limited)","Acela Express - False, Lake Shore Limited - True, Northeast Regional (Boston Branch) - False, Franklin/Foxboro Line - False, Framingham/Worcester Line - False, Needham Line - False, Providence/Stoughton Line (Providence Branch) - False, Providence/Stoughton Line (Stoughton Branch) - False, Orange Line - FALSE","Acela Express - Light (<15), Lake Shore Limited - Minimal (<5), Northeast Regional (Boston Branch) - Light (<15), Franklin/Foxboro Line - Medium (<35), Framingham/Worcester Line - Medium (<35), Needham Line - Medium (<35), Providence/Stoughton Line (Providence Branch) - Medium (<35), Providence/Stoughton Line (Stoughton Branch) - Light (<15), Orange Line - Constant (>70)",FALSE,None,TRUE,Built,1987,https://en.wikipedia.org/wiki/Back_Bay_station,"<a href=""https://en.wikipedia.org/wiki/Back_Bay_station"" target=""_blank"">Back Bay</a>"
-71.083605,42.34148,1132,Massachusetts Avenue,"Boston, MA",Fenway-Kenmore,FALSE,MBTA Subway,NE02,FALSE,Orange Line (MBTA Subway),,FALSE,Constant (>70),FALSE,None,TRUE,Built,1987,https://en.wikipedia.org/wiki/Massachusetts_Avenue_station,"<a href=""https://en.wikipedia.org/wiki/Massachusetts_Avenue_station"" target=""_blank"">Massachusetts Avenue</a>"
-71.08937,42.336726,1133,Ruggles,"Boston, MA",Roxbury Crossing,TRUE,"MBTA Commuter Rail, MBTA Subway","NE02, NE03",TRUE,"Franklin/Foxboro Line (MBTA Commuter Rail), Needham Line (MBTA Commuter Rail), Providence/Stoughton Line (MBTA Commuter Rail), Orange Line (MBTA Subway)","Providence Branch (Providence/Stoughton Line), Stoughton Branch (Providence/Stoughton Line)","Franklin/Foxboro Line - False, Needham Line - False, Providence/Stoughton Line (Providence Branch) - True, Providence/Stoughton Line (Stoughton Branch) - True, Orange Line - FALSE","Franklin/Foxboro Line - Light (<15), Needham Line - Light (<15), Providence/Stoughton Line (Providence Branch) - Light (<15), Providence/Stoughton Line (Stoughton Branch) - Light (<15), Orange Line - Constant (>70)",FALSE,None,TRUE,Built,1987,https://en.wikipedia.org/wiki/Ruggles_station,"<a href=""https://en.wikipedia.org/wiki/Ruggles_station"" target=""_blank"">Ruggles</a>"
-71.095641,42.331266,1134,Roxbury Crossing,"Boston, MA",Roxbury Crossing,FALSE,MBTA Subway,NE02,FALSE,Orange Line (MBTA Subway),,FALSE,Constant (>70),FALSE,None,TRUE,Built,1987,https://en.wikipedia.org/wiki/Roxbury_Crossing_station,"<a href=""https://en.wikipedia.org/wiki/Roxbury_Crossing_station"" target=""_blank"">Roxbury Crossing</a>"
-71.100308,42.322596,1135,Jackson Square,"Boston, MA",Jamaica Plain,FALSE,MBTA Subway,NE02,FALSE,Orange Line (MBTA Subway),,FALSE,Constant (>70),FALSE,None,TRUE,Built,1987,https://en.wikipedia.org/wiki/Jackson_Square_station,"<a href=""https://en.wikipedia.org/wiki/Jackson_Square_station"" target=""_blank"">Jackson Square</a>"
-71.104468,42.317223,1136,Stony Brook,"Boston, MA",Jamaica Plain,FALSE,MBTA Subway,NE02,FALSE,Orange Line (MBTA Subway),,FALSE,Constant (>70),FALSE,None,TRUE,Built,1987,https://en.wikipedia.org/wiki/Stony_Brook_station_(MBTA),"<a href=""https://en.wikipedia.org/wiki/Stony_Brook_station_(MBTA)"" target=""_blank"">Stony Brook</a>"
-71.107647,42.310474,1137,Green Street,"Boston, MA",Jamaica Plain,FALSE,MBTA Subway,NE02,FALSE,Orange Line (MBTA Subway),,FALSE,Constant (>70),FALSE,None,TRUE,Built,1987,https://en.wikipedia.org/wiki/Green_Street_station,"<a href=""https://en.wikipedia.org/wiki/Green_Street_station"" target=""_blank"">Green Street</a>"
-71.114189,42.300642,1138,Forest Hills,"Boston, MA",Jamaica Plain,TRUE,"MBTA Commuter Rail, MBTA Subway","NE02, NE03",FALSE,"Needham Line (MBTA Commuter Rail), Orange Line (MBTA Subway)",,"Needham Line - False, Orange Line - False","Needham Line - Light (<15), Orange Line - Constant (>70)",TRUE,None,TRUE,Built,1987,https://en.wikipedia.org/wiki/Forest_Hills_station_(MBTA),"<a href=""https://en.wikipedia.org/wiki/Forest_Hills_station_(MBTA)"" target=""_blank"">Forest Hills</a>"
-71.077224,42.371068,1139,Lechmere,"Cambridge, MA",Lechmere Square,FALSE,MBTA Subway,NE02,FALSE,Green Line (MBTA Subway),E (Green Line),FALSE,Constant (>70),TRUE,None,TRUE,Built,1922,https://en.wikipedia.org/wiki/Lechmere_station,"<a href=""https://en.wikipedia.org/wiki/Lechmere_station"" target=""_blank"">Lechmere</a>"
-71.067645,42.36664,1140,Science Park,"Boston, MA",West End,FALSE,MBTA Subway,NE02,FALSE,Green Line (MBTA Subway),E (Green Line),FALSE,Constant (>70),FALSE,None,TRUE,Built,1955,https://en.wikipedia.org/wiki/Science_Park_station_(MBTA),"<a href=""https://en.wikipedia.org/wiki/Science_Park_station_(MBTA)"" target=""_blank"">Science Park</a>"
-71.064679,42.352773,1141,Boylston,"Boston, MA",Downtown,FALSE,MBTA Subway,NE02,FALSE,Green Line (MBTA Subway),"B (Green Line), C (Green Line), D (Green Line), E (Green Line)","Green Line (B) - False, Green Line (C) - False, Green Line (D) - False, Green Line (E) - False","Green Line (B) - Constant (>70), Green Line (C) - Constant (>70), Green Line (D) - Constant (>70), Green Line (E) - Constant (>70)",FALSE,None,FALSE,Built,1897,https://en.wikipedia.org/wiki/Boylston_station,"<a href=""https://en.wikipedia.org/wiki/Boylston_station"" target=""_blank"">Boylston</a>"
-71.07093,42.351816,1142,Arlington,"Boston, MA",Back Bay,FALSE,MBTA Subway,NE02,FALSE,Green Line (MBTA Subway),"B (Green Line), C (Green Line), D (Green Line), E (Green Line)","Green Line (B) - False, Green Line (C) - False, Green Line (D) - False, Green Line (E) - False","Green Line (B) - Constant (>70), Green Line (C) - Constant (>70), Green Line (D) - Constant (>70), Green Line (E) - Constant (>70)",FALSE,None,TRUE,Built,1921,https://en.wikipedia.org/wiki/Arlington_station_(MBTA),"<a href=""https://en.wikipedia.org/wiki/Arlington_station_(MBTA)"" target=""_blank"">Arlington</a>"
-71.077511,42.350025,1143,Copley,"Boston, MA",Back Bay,FALSE,MBTA Subway,NE02,FALSE,Green Line (MBTA Subway),"B (Green Line), C (Green Line), D (Green Line), E (Green Line)","Green Line (B) - False, Green Line (C) - False, Green Line (D) - False, Green Line (E) - False","Green Line (B) - Constant (>70), Green Line (C) - Constant (>70), Green Line (D) - Constant (>70), Green Line (E) - Constant (>70)",FALSE,None,TRUE,Built,1914,https://en.wikipedia.org/wiki/Copley_station,"<a href=""https://en.wikipedia.org/wiki/Copley_station"" target=""_blank"">Copley</a>"
-71.087981,42.348042,1144,Hynes Convention Center,"Boston, MA",Back Bay,FALSE,MBTA Subway,NE02,FALSE,Green Line (MBTA Subway),"B (Green Line), C (Green Line), D (Green Line)","Green Line (B) - False, Green Line (C) - False, Green Line (D) - False","Green Line (B) - Constant (>70), Green Line (C) - Constant (>70), Green Line (D) - Constant (>70)",FALSE,None,FALSE,Built,1914,https://en.wikipedia.org/wiki/Hynes_Convention_Center_station,"<a href=""https://en.wikipedia.org/wiki/Hynes_Convention_Center_station"" target=""_blank"">Hynes Convention Center</a>"
-71.096052,42.348925,1145,Kenmore,"Boston, MA",Fenway-Kenmore,FALSE,MBTA Subway,NE02,FALSE,Green Line (MBTA Subway),"B (Green Line), C (Green Line), D (Green Line)","Green Line (B) - False, Green Line (C) - False, Green Line (D) - False","Green Line (B) - Constant (>70), Green Line (C) - Constant (>70), Green Line (D) - Constant (>70)",FALSE,None,TRUE,Built,1932,https://en.wikipedia.org/wiki/Kenmore_station,"<a href=""https://en.wikipedia.org/wiki/Kenmore_station"" target=""_blank"">Kenmore</a>"
-71.100058,42.349224,1146,Blandford Street,"Boston, MA",Fenway-Kenmore,FALSE,MBTA Subway,NE02,FALSE,Green Line (MBTA Subway),B (Green Line),FALSE,Constant (>70),FALSE,None,TRUE,Built,1932,https://en.wikipedia.org/wiki/Blandford_Street_station,"<a href=""https://en.wikipedia.org/wiki/Blandford_Street_station"" target=""_blank"">Blandford Street</a>"
-71.104297,42.349735,1147,Boston University East,"Boston, MA",Fenway-Kenmore,FALSE,MBTA Subway,NE02,FALSE,Green Line (MBTA Subway),B (Green Line),FALSE,Constant (>70),FALSE,None,TRUE,Built,2003,https://en.wikipedia.org/wiki/Boston_University_East_station,"<a href=""https://en.wikipedia.org/wiki/Boston_University_East_station"" target=""_blank"">Boston University East</a>"
-71.107221,42.350087,1148,Boston University Central,"Boston, MA",Fenway-Kenmore,FALSE,MBTA Subway,NE02,FALSE,Green Line (MBTA Subway),B (Green Line),FALSE,Constant (>70),FALSE,None,TRUE,Built,2003,https://en.wikipedia.org/wiki/Boston_University_Central_station,"<a href=""https://en.wikipedia.org/wiki/Boston_University_Central_station"" target=""_blank"">Boston University Central</a>"
-71.1134,42.350832,1149,Boston University West,"Boston, MA",Fenway-Kenmore,FALSE,MBTA Subway,NE02,FALSE,Green Line (MBTA Subway),B (Green Line),FALSE,Constant (>70),FALSE,None,FALSE,Built,,https://en.wikipedia.org/wiki/Boston_University_West_station,"<a href=""https://en.wikipedia.org/wiki/Boston_University_West_station"" target=""_blank"">Boston University West</a>"
-71.116276,42.351178,1150,St. Paul Street,"Boston, MA",Fenway-Kenmore,FALSE,MBTA Subway,NE02,FALSE,Green Line (MBTA Subway),B (Green Line),FALSE,Constant (>70),FALSE,None,FALSE,Built,,"https://en.wikipedia.org/wiki/St._Paul_Street_station_(MBTA_Green_Line_""B""_Branch)","<a href=""https://en.wikipedia.org/wiki/St._Paul_Street_station_(MBTA_Green_Line_""B""_Branch)"" target=""_blank"">St. Paul Street</a>"
-71.118981,42.351504,1151,Pleasant Street,"Boston, MA",Fenway-Kenmore,FALSE,MBTA Subway,NE02,FALSE,Green Line (MBTA Subway),B (Green Line),FALSE,Constant (>70),FALSE,None,FALSE,Built,,https://en.wikipedia.org/wiki/Pleasant_Street_station_(MBTA),"<a href=""https://en.wikipedia.org/wiki/Pleasant_Street_station_(MBTA)"" target=""_blank"">Pleasant Street</a>"
-71.121883,42.351846,1152,Babcock Street,"Boston, MA",Fenway-Kenmore,FALSE,MBTA Subway,NE02,FALSE,Green Line (MBTA Subway),B (Green Line),FALSE,Constant (>70),FALSE,None,FALSE,Built,,https://en.wikipedia.org/wiki/Babcock_Street_station,"<a href=""https://en.wikipedia.org/wiki/Babcock_Street_station"" target=""_blank"">Babcock Street</a>"
-71.125471,42.351674,1153,Packards Corner,"Boston, MA",Allston,FALSE,MBTA Subway,NE02,FALSE,Green Line (MBTA Subway),B (Green Line),FALSE,Constant (>70),FALSE,None,FALSE,Built,,https://en.wikipedia.org/wiki/Packards_Corner_station,"<a href=""https://en.wikipedia.org/wiki/Packards_Corner_station"" target=""_blank"">Packards Corner</a>"
-71.131398,42.350222,1154,Harvard Avenue,"Boston, MA",Allston,FALSE,MBTA Subway,NE02,FALSE,Green Line (MBTA Subway),B (Green Line),FALSE,Constant (>70),FALSE,None,TRUE,Built,2002,https://en.wikipedia.org/wiki/Harvard_Avenue_station,"<a href=""https://en.wikipedia.org/wiki/Harvard_Avenue_station"" target=""_blank"">Harvard Avenue</a>"
-71.13467,42.348678,1155,Griggs Street,"Boston, MA",Allston,FALSE,MBTA Subway,NE02,FALSE,Green Line (MBTA Subway),B (Green Line),FALSE,Constant (>70),FALSE,None,FALSE,Built,1900,https://en.wikipedia.org/wiki/Griggs_Street_station,"<a href=""https://en.wikipedia.org/wiki/Griggs_Street_station"" target=""_blank"">Griggs Street</a>"
-71.138006,42.34869,1156,Allston Street,"Boston, MA",Allston,FALSE,MBTA Subway,NE02,FALSE,Green Line (MBTA Subway),B (Green Line),FALSE,Constant (>70),FALSE,None,FALSE,Built,1900,https://en.wikipedia.org/wiki/Allston_Street_station,"<a href=""https://en.wikipedia.org/wiki/Allston_Street_station"" target=""_blank"">Allston Street</a>"
-71.140487,42.348351,1157,Warren Street,"Boston, MA",Brighton,FALSE,MBTA Subway,NE02,FALSE,Green Line (MBTA Subway),B (Green Line),FALSE,Constant (>70),FALSE,None,FALSE,Built,1900,https://en.wikipedia.org/wiki/Warren_Street_station_(MBTA),"<a href=""https://en.wikipedia.org/wiki/Warren_Street_station_(MBTA)"" target=""_blank"">Warren Street</a>"
-71.14267,42.343996,1158,Washington Street,"Boston, MA",Brighton,FALSE,MBTA Subway,NE02,FALSE,Green Line (MBTA Subway),B (Green Line),FALSE,Constant (>70),FALSE,None,TRUE,Built,2002,https://en.wikipedia.org/wiki/Washington_Street_station_(MBTA),"<a href=""https://en.wikipedia.org/wiki/Washington_Street_station_(MBTA)"" target=""_blank"">Washington Street</a>"
-71.146259,42.341593,1159,Sutherland Road,"Boston, MA",Brighton,FALSE,MBTA Subway,NE02,FALSE,Green Line (MBTA Subway),B (Green Line),FALSE,Constant (>70),FALSE,None,FALSE,Built,,https://en.wikipedia.org/wiki/Sutherland_Road_station,"<a href=""https://en.wikipedia.org/wiki/Sutherland_Road_station"" target=""_blank"">Sutherland Road</a>"
-71.151109,42.34058,1160,Chiswick Road,"Boston, MA",Brighton,FALSE,MBTA Subway,NE02,FALSE,Green Line (MBTA Subway),B (Green Line),FALSE,Constant (>70),FALSE,None,FALSE,Built,,https://en.wikipedia.org/wiki/Chiswick_Road_station,"<a href=""https://en.wikipedia.org/wiki/Chiswick_Road_station"" target=""_blank"">Chiswick Road</a>"
-71.15306,42.338228,1161,Chestnut Hill Avenue,"Boston, MA",Brighton,FALSE,MBTA Subway,NE02,FALSE,Green Line (MBTA Subway),B (Green Line),FALSE,Constant (>70),FALSE,None,FALSE,Built,,https://en.wikipedia.org/wiki/Chestnut_Hill_Avenue_station,"<a href=""https://en.wikipedia.org/wiki/Chestnut_Hill_Avenue_station"" target=""_blank"">Chestnut Hill Avenue</a>"
-71.157256,42.339462,1162,South Street,"Boston, MA",Brighton,FALSE,MBTA Subway,NE02,FALSE,Green Line (MBTA Subway),B (Green Line),FALSE,Constant (>70),FALSE,None,FALSE,Built,,https://en.wikipedia.org/wiki/South_Street_station_(MBTA),"<a href=""https://en.wikipedia.org/wiki/South_Street_station_(MBTA)"" target=""_blank"">South Street</a>"
-71.16699,42.340215,1163,Boston College,"Boston, MA",Brighton,FALSE,MBTA Subway,NE02,FALSE,Green Line (MBTA Subway),B (Green Line),FALSE,Constant (>70),TRUE,None,TRUE,Built,1930,https://en.wikipedia.org/wiki/Boston_College_station,"<a href=""https://en.wikipedia.org/wiki/Boston_College_station"" target=""_blank"">Boston College</a>"
-71.107422,42.345973,1164,St. Marys Street,"Brookline, MA",,FALSE,MBTA Subway,NE02,FALSE,Green Line (MBTA Subway),C (Green Line),FALSE,Constant (>70),FALSE,None,TRUE,Built,2002,https://en.wikipedia.org/wiki/St._Marys_Street_station,"<a href=""https://en.wikipedia.org/wiki/St._Marys_Street_station"" target=""_blank"">St. Marys Street</a>"
-71.111486,42.344839,1165,Hawes Street,"Brookline, MA",,FALSE,MBTA Subway,NE02,FALSE,Green Line (MBTA Subway),C (Green Line),FALSE,Constant (>70),FALSE,None,FALSE,Built,,https://en.wikipedia.org/wiki/Hawes_Street_station,"<a href=""https://en.wikipedia.org/wiki/Hawes_Street_station"" target=""_blank"">Hawes Street</a>"
-71.114345,42.34404,1166,Kent Street,"Brookline, MA",,FALSE,MBTA Subway,NE02,FALSE,Green Line (MBTA Subway),C (Green Line),FALSE,Constant (>70),FALSE,None,FALSE,Built,,https://en.wikipedia.org/wiki/Kent_Street_station,"<a href=""https://en.wikipedia.org/wiki/Kent_Street_station"" target=""_blank"">Kent Street</a>"
-71.117244,42.343231,1167,St. Paul Street,"Brookline, MA",,FALSE,MBTA Subway,NE02,FALSE,Green Line (MBTA Subway),C (Green Line),FALSE,Constant (>70),FALSE,None,FALSE,Built,,"https://en.wikipedia.org/wiki/St._Paul_Street_station_(MBTA_Green_Line_""C""_Branch)","<a href=""https://en.wikipedia.org/wiki/St._Paul_Street_station_(MBTA_Green_Line_""C""_Branch)"" target=""_blank"">St. Paul Street</a>"
-71.12131,42.342165,1168,Coolidge Corner,"Brookline, MA",Coolidge Corner,FALSE,MBTA Subway,NE02,FALSE,Green Line (MBTA Subway),C (Green Line),FALSE,Constant (>70),FALSE,None,TRUE,Built,2002,https://en.wikipedia.org/wiki/Coolidge_Corner_station,"<a href=""https://en.wikipedia.org/wiki/Coolidge_Corner_station"" target=""_blank"">Coolidge Corner</a>"
-71.125874,42.341022,1169,Summit Avenue,"Brookline, MA",,FALSE,MBTA Subway,NE02,FALSE,Green Line (MBTA Subway),C (Green Line),FALSE,Constant (>70),FALSE,None,FALSE,Built,,"https://en.wikipedia.org/wiki/Summit_Avenue_station_(MBTA_Green_Line_""C""_Branch)","<a href=""https://en.wikipedia.org/wiki/Summit_Avenue_station_(MBTA_Green_Line_""C""_Branch)"" target=""_blank"">Summit Avenue</a>"
-71.128917,42.339999,1170,Brandon Hall,"Brookline, MA",,FALSE,MBTA Subway,NE02,FALSE,Green Line (MBTA Subway),C (Green Line),FALSE,Constant (>70),FALSE,None,FALSE,Built,,https://en.wikipedia.org/wiki/Brandon_Hall_station,"<a href=""https://en.wikipedia.org/wiki/Brandon_Hall_station"" target=""_blank"">Brandon Hall</a>"
-71.131346,42.339653,1171,Fairbanks Street,"Brookline, MA",,FALSE,MBTA Subway,NE02,FALSE,Green Line (MBTA Subway),C (Green Line),FALSE,Constant (>70),FALSE,None,FALSE,Built,,https://en.wikipedia.org/wiki/Fairbanks_station,"<a href=""https://en.wikipedia.org/wiki/Fairbanks_station"" target=""_blank"">Fairbanks Street</a>"
-71.13499,42.339485,1172,Washington Square,"Brookline, MA",,FALSE,MBTA Subway,NE02,FALSE,Green Line (MBTA Subway),C (Green Line),FALSE,Constant (>70),FALSE,None,TRUE,Built,2002,https://en.wikipedia.org/wiki/Washington_Square_station_(MBTA),"<a href=""https://en.wikipedia.org/wiki/Washington_Square_station_(MBTA)"" target=""_blank"">Washington Square</a>"
-71.138542,42.338561,1173,Tappan Street,"Brookline, MA",,FALSE,MBTA Subway,NE02,FALSE,Green Line (MBTA Subway),C (Green Line),FALSE,Constant (>70),FALSE,None,FALSE,Built,,https://en.wikipedia.org/wiki/Tappan_Street_station,"<a href=""https://en.wikipedia.org/wiki/Tappan_Street_station"" target=""_blank"">Tappan Street</a>"
-71.142007,42.337796,1174,Dean Road,"Brookline, MA",,FALSE,MBTA Subway,NE02,FALSE,Green Line (MBTA Subway),C (Green Line),FALSE,Constant (>70),FALSE,None,FALSE,Built,,https://en.wikipedia.org/wiki/Dean_Road_station,"<a href=""https://en.wikipedia.org/wiki/Dean_Road_station"" target=""_blank"">Dean Road</a>"
-71.145679,42.336985,1175,Englewood Avenue,"Brookline, MA",,FALSE,MBTA Subway,NE02,FALSE,Green Line (MBTA Subway),C (Green Line),FALSE,Constant (>70),FALSE,None,FALSE,Built,,https://en.wikipedia.org/wiki/Englewood_Avenue_station,"<a href=""https://en.wikipedia.org/wiki/Englewood_Avenue_station"" target=""_blank"">Englewood Avenue</a>"
-71.14913,42.336223,1176,Cleveland Circle,"Boston, MA",Brighton,FALSE,MBTA Subway,NE02,FALSE,Green Line (MBTA Subway),C (Green Line),FALSE,Constant (>70),TRUE,None,TRUE,Built,2003,https://en.wikipedia.org/wiki/Cleveland_Circle_station,"<a href=""https://en.wikipedia.org/wiki/Cleveland_Circle_station"" target=""_blank"">Cleveland Circle</a>"
-71.104486,42.345156,1177,Fenway,"Boston, MA",Fenway-Kenmore,FALSE,MBTA Subway,NE02,FALSE,Green Line (MBTA Subway),D (Green Line),FALSE,Constant (>70),FALSE,None,TRUE,Built,1959,https://en.wikipedia.org/wiki/Fenway_station,"<a href=""https://en.wikipedia.org/wiki/Fenway_station"" target=""_blank"">Fenway</a>"
-71.10996,42.341623,1178,Longwood,"Brookline, MA",,FALSE,MBTA Subway,NE02,FALSE,Green Line (MBTA Subway),D (Green Line),FALSE,Constant (>70),FALSE,None,TRUE,Built,1959,https://en.wikipedia.org/wiki/Longwood_station_(MBTA),"<a href=""https://en.wikipedia.org/wiki/Longwood_station_(MBTA)"" target=""_blank"">Longwood</a>"
-71.11697,42.332595,1179,Brookline Village,"Brookline, MA",,FALSE,MBTA Subway,NE02,FALSE,Green Line (MBTA Subway),D (Green Line),FALSE,Constant (>70),FALSE,None,TRUE,Built,1959,https://en.wikipedia.org/wiki/Brookline_Village_station,"<a href=""https://en.wikipedia.org/wiki/Brookline_Village_station"" target=""_blank"">Brookline Village</a>"
-71.126397,42.331329,1180,Brookline Hills,"Brookline, MA",,FALSE,MBTA Subway,NE02,FALSE,Green Line (MBTA Subway),D (Green Line),FALSE,Constant (>70),FALSE,None,TRUE,Built,1959,https://en.wikipedia.org/wiki/Brookline_Hills_station,"<a href=""https://en.wikipedia.org/wiki/Brookline_Hills_station"" target=""_blank"">Brookline Hills</a>"
-71.14044,42.335748,1181,Beaconsfield,"Brookline, MA",,FALSE,MBTA Subway,NE02,FALSE,Green Line (MBTA Subway),D (Green Line),FALSE,Constant (>70),FALSE,None,FALSE,Built,1959,https://en.wikipedia.org/wiki/Beaconsfield_station_(MBTA),"<a href=""https://en.wikipedia.org/wiki/Beaconsfield_station_(MBTA)"" target=""_blank"">Beaconsfield</a>"
-71.148299,42.335125,1182,Reservoir,"Boston, MA",Brighton,FALSE,MBTA Subway,NE02,FALSE,Green Line (MBTA Subway),D (Green Line),FALSE,Constant (>70),FALSE,None,TRUE,Built,1959,https://en.wikipedia.org/wiki/Reservoir_station_(MBTA),"<a href=""https://en.wikipedia.org/wiki/Reservoir_station_(MBTA)"" target=""_blank"">Reservoir</a>"
-71.164633,42.326788,1183,Chestnut Hill,"Newton, MA",Chestnut Hill,FALSE,MBTA Subway,NE02,FALSE,Green Line (MBTA Subway),D (Green Line),FALSE,Constant (>70),FALSE,None,FALSE,Built,1959,https://en.wikipedia.org/wiki/Chestnut_Hill_station_(MBTA),"<a href=""https://en.wikipedia.org/wiki/Chestnut_Hill_station_(MBTA)"" target=""_blank"">Chestnut Hill</a>"
-71.192192,42.329518,1184,Newton Centre,"Newton, MA",Newton Centre,FALSE,MBTA Subway,NE02,FALSE,Green Line (MBTA Subway),D (Green Line),FALSE,Constant (>70),FALSE,None,TRUE,Built,1959,https://en.wikipedia.org/wiki/Newton_Centre_station,"<a href=""https://en.wikipedia.org/wiki/Newton_Centre_station"" target=""_blank"">Newton Centre</a>"
-71.205504,42.322352,1185,Newton Highlands,"Newton, MA",Newton Highlands,FALSE,MBTA Subway,NE02,FALSE,Green Line (MBTA Subway),D (Green Line),FALSE,Constant (>70),FALSE,None,FALSE,Built,1959,https://en.wikipedia.org/wiki/Newton_Highlands_station,"<a href=""https://en.wikipedia.org/wiki/Newton_Highlands_station"" target=""_blank"">Newton Highlands</a>"
-71.216553,42.318963,1186,Eliot,"Newton, MA",Newton Upper Falls,FALSE,MBTA Subway,NE02,FALSE,Green Line (MBTA Subway),D (Green Line),FALSE,Constant (>70),FALSE,None,FALSE,Built,1959,https://en.wikipedia.org/wiki/Eliot_station,"<a href=""https://en.wikipedia.org/wiki/Eliot_station"" target=""_blank"">Eliot</a>"
-71.230466,42.325792,1187,Waban,"Newton, MA",Waban,FALSE,MBTA Subway,NE02,FALSE,Green Line (MBTA Subway),D (Green Line),FALSE,Constant (>70),FALSE,None,FALSE,Built,1959,https://en.wikipedia.org/wiki/Waban_station,"<a href=""https://en.wikipedia.org/wiki/Waban_station"" target=""_blank"">Waban</a>"
-71.243491,42.332922,1188,Woodland,"Newton, MA",Newton Lower Falls,FALSE,MBTA Subway,NE02,FALSE,Green Line (MBTA Subway),D (Green Line),FALSE,Constant (>70),FALSE,None,TRUE,Built,1959,https://en.wikipedia.org/wiki/Woodland_station,"<a href=""https://en.wikipedia.org/wiki/Woodland_station"" target=""_blank"">Woodland</a>"
-71.252429,42.337483,1189,Riverside,"Newton, MA",Auburndale,FALSE,MBTA Subway,NE02,FALSE,Green Line (MBTA Subway),D (Green Line),FALSE,Constant (>70),TRUE,None,TRUE,Built,1959,https://en.wikipedia.org/wiki/Riverside_station_(MBTA),"<a href=""https://en.wikipedia.org/wiki/Riverside_station_(MBTA)"" target=""_blank"">Riverside</a>"
-71.081307,42.345581,1190,Prudential,"Boston, MA",Back Bay,FALSE,MBTA Subway,NE02,FALSE,Green Line (MBTA Subway),E (Green Line),FALSE,Constant (>70),FALSE,None,TRUE,Built,1941,https://en.wikipedia.org/wiki/Prudential_station,"<a href=""https://en.wikipedia.org/wiki/Prudential_station"" target=""_blank"">Prudential</a>"
-71.084916,42.342769,1191,Symphony,"Boston, MA",Fenway-Kenmore,FALSE,MBTA Subway,NE02,FALSE,Green Line (MBTA Subway),E (Green Line),FALSE,Constant (>70),FALSE,None,FALSE,Built,1941,https://en.wikipedia.org/wiki/Symphony_station,"<a href=""https://en.wikipedia.org/wiki/Symphony_station"" target=""_blank"">Symphony</a>"
-71.089838,42.339985,1192,Northeastern,"Boston, MA",Fenway-Kenmore,FALSE,MBTA Subway,NE02,FALSE,Green Line (MBTA Subway),E (Green Line),FALSE,Constant (>70),FALSE,None,TRUE,Built,2003,https://en.wikipedia.org/wiki/Northeastern_University_station,"<a href=""https://en.wikipedia.org/wiki/Northeastern_University_station"" target=""_blank"">Northeastern</a>"
-71.095069,42.3379,1193,Museum of Fine Arts,"Boston, MA",Fenway-Kenmore,FALSE,MBTA Subway,NE02,FALSE,Green Line (MBTA Subway),E (Green Line),FALSE,Constant (>70),FALSE,None,TRUE,Built,2003,https://en.wikipedia.org/wiki/Museum_of_Fine_Arts_station_(MBTA),"<a href=""https://en.wikipedia.org/wiki/Museum_of_Fine_Arts_station_(MBTA)"" target=""_blank"">Museum of Fine Arts</a>"
-71.099527,42.336122,1194,Longwood,"Boston, MA",Mission Hill,FALSE,MBTA Subway,NE02,FALSE,Green Line (MBTA Subway),E (Green Line),FALSE,Constant (>70),FALSE,None,TRUE,Built,2003,https://en.wikipedia.org/wiki/Longwood_Medical_Area_station,"<a href=""https://en.wikipedia.org/wiki/Longwood_Medical_Area_station"" target=""_blank"">Longwood</a>"
-71.104438,42.334306,1195,Brigham Circle,"Boston, MA",Mission Hill,FALSE,MBTA Subway,NE02,FALSE,Green Line (MBTA Subway),E (Green Line),FALSE,Constant (>70),FALSE,None,TRUE,Built,2003,https://en.wikipedia.org/wiki/Brigham_Circle_station,"<a href=""https://en.wikipedia.org/wiki/Brigham_Circle_station"" target=""_blank"">Brigham Circle</a>"
-71.105975,42.333582,1196,Fenwood Road,"Boston, MA",Mission Hill,FALSE,MBTA Subway,NE02,FALSE,Green Line (MBTA Subway),E (Green Line),FALSE,Constant (>70),FALSE,None,FALSE,Built,,https://en.wikipedia.org/wiki/Fenwood_Road_station,"<a href=""https://en.wikipedia.org/wiki/Fenwood_Road_station"" target=""_blank"">Fenwood Road</a>"
-71.109514,42.333161,1197,Mission Park,"Boston, MA",Mission Hill,FALSE,MBTA Subway,NE02,FALSE,Green Line (MBTA Subway),E (Green Line),FALSE,Constant (>70),FALSE,None,FALSE,Built,,https://en.wikipedia.org/wiki/Mission_Park_station,"<a href=""https://en.wikipedia.org/wiki/Mission_Park_station"" target=""_blank"">Mission Park</a>"
-71.111962,42.331608,1198,Riverway,"Boston, MA",Mission Hill,FALSE,MBTA Subway,NE02,FALSE,Green Line (MBTA Subway),E (Green Line),FALSE,Constant (>70),FALSE,None,FALSE,Built,,https://en.wikipedia.org/wiki/Riverway_station,"<a href=""https://en.wikipedia.org/wiki/Riverway_station"" target=""_blank"">Riverway</a>"
-71.111005,42.329324,1199,Back of the Hill,"Boston, MA",Mission Hill,FALSE,MBTA Subway,NE02,FALSE,Green Line (MBTA Subway),E (Green Line),FALSE,Constant (>70),FALSE,None,FALSE,Built,,https://en.wikipedia.org/wiki/Back_of_the_Hill_station,"<a href=""https://en.wikipedia.org/wiki/Back_of_the_Hill_station"" target=""_blank"">Back of the Hill</a>"
-71.110317,42.328242,1200,Heath Street,"Boston, MA",Jamaica Plain,FALSE,MBTA Subway,NE02,FALSE,Green Line (MBTA Subway),E (Green Line),FALSE,Constant (>70),TRUE,None,TRUE,Built,2003,https://en.wikipedia.org/wiki/Heath_Street_station,"<a href=""https://en.wikipedia.org/wiki/Heath_Street_station"" target=""_blank"">Heath Street</a>"
-71.076674,42.371545,1201,Lechmere (Planned),"Cambridge, MA",Northpoint,FALSE,MBTA Subway,NE02,FALSE,Green Line (MBTA Subway),"D (Green Line), E (Green Line)",,,FALSE,None,,Under Construction,,https://en.wikipedia.org/wiki/Lechmere_station#Green_Line_Extension_and_new_station,"<a href=""https://en.wikipedia.org/wiki/Lechmere_station#Green_Line_Extension_and_new_station"" target=""_blank"">Lechmere (Planned)</a>"
-71.096039,42.37806,1202,Union Square (Planned),"Somerville, MA",Ward Two,FALSE,MBTA Subway,NE02,FALSE,Green Line (MBTA Subway),E (Green Line),,,FALSE,None,,Under Construction,,https://en.wikipedia.org/wiki/Union_Square_station_(Somerville),"<a href=""https://en.wikipedia.org/wiki/Union_Square_station_(Somerville)"" target=""_blank"">Union Square (Planned)</a>"
-71.088124,42.380877,1203,East Somerville (Planned),"Somerville, MA",East Somerville,FALSE,MBTA Subway,NE02,FALSE,Green Line (MBTA Subway),D (Green Line),,,FALSE,None,,Under Construction,,https://en.wikipedia.org/wiki/East_Somerville_station,"<a href=""https://en.wikipedia.org/wiki/East_Somerville_station"" target=""_blank"">East Somerville (Planned)</a>"
-71.095125,42.387139,1204,Gilman Square (Planned),"Somerville, MA",Winter Hill,FALSE,MBTA Subway,NE02,FALSE,Green Line (MBTA Subway),D (Green Line),,,FALSE,None,,Planned,,https://en.wikipedia.org/wiki/Gilman_Square_station,"<a href=""https://en.wikipedia.org/wiki/Gilman_Square_station"" target=""_blank"">Gilman Square (Planned)</a>"
-71.105942,42.393143,1205,Magoun Square (Planned),"Somerville, MA",Magoun Square,FALSE,MBTA Subway,NE02,FALSE,Green Line (MBTA Subway),D (Green Line),,,FALSE,None,,Planned,,https://en.wikipedia.org/wiki/Magoun_Square_station,"<a href=""https://en.wikipedia.org/wiki/Magoun_Square_station"" target=""_blank"">Magoun Square (Planned)</a>"
-71.110838,42.39945,1206,Ball Square (Planned),"Somerville, MA",Powder House Square,FALSE,MBTA Subway,NE02,FALSE,Green Line (MBTA Subway),D (Green Line),,,FALSE,None,,Planned,,https://en.wikipedia.org/wiki/Ball_Square_station,"<a href=""https://en.wikipedia.org/wiki/Ball_Square_station"" target=""_blank"">Ball Square (Planned)</a>"
-71.116519,42.407146,1207,College Avenue (Planned),"Medford, MA",South Medford,FALSE,MBTA Subway,NE02,FALSE,Green Line (MBTA Subway),D (Green Line),,,FALSE,None,,Planned,,https://en.wikipedia.org/wiki/Medford/Tufts_station,"<a href=""https://en.wikipedia.org/wiki/Medford/Tufts_station"" target=""_blank"">College Avenue (Planned)</a>"
-71.063093,42.366874,1226,North Station,"Boston, MA",Downtown,TRUE,"Amtrak, MBTA Commuter Rail","NE01, NE03",TRUE,"Downeaster (Amtrak), Fitchburg Line (MBTA Commuter Rail), Haverhill Line (MBTA Commuter Rail), Lowell Line (MBTA Commuter Rail), Newburyport/Rockport Line (MBTA Commuter Rail)","Main Line (Haverhill Line), Wildcat Branch (Haverhill Line), Newburyport Branch (Newburyport/Rockport Line), Rockport Branch (Newburyport/Rockport Line)","Downeaster - True, Fitchburg Line - False, Haverhill Line (Main Line) - False, Haverhill Line (Wildcat Branch) - True, Lowell Line - False, Newburyport/Rockport Line (Newburyport Branch) - False, Newburyport/Rockport Line (Rockport Branch) - False","Downeaster - Light (<15), Ftichburg Line - Medium (<35), Haverhill Line (Main Line) - Medium (<35), Haverhill Line (Wildcat Branch) - Minimal (<5), Lowell Line - Medium (<35), Newburyport/Rockport Line (Newburyport Branch) - Medium (<35), Newburyport/Rockport Line (Rockport Branch) - Medium (<35)",TRUE,North Station (MBTA Subway),TRUE,Built,1995,https://en.wikipedia.org/wiki/North_Station,"<a href=""https://en.wikipedia.org/wiki/North_Station"" target=""_blank"">North Station</a>"
-71.176246,42.395982,1227,Belmont,"Belmont, MA",,FALSE,MBTA Commuter Rail,NE03,FALSE,Fitchburg Line (MBTA Commuter Rail),,FALSE,Medium (<35),FALSE,None,FALSE,Built,1908,https://en.wikipedia.org/wiki/Belmont_Center_station,"<a href=""https://en.wikipedia.org/wiki/Belmont_Center_station"" target=""_blank"">Belmont</a>"
-71.190833,42.387595,1228,Waverley,"Belmont, MA",,FALSE,MBTA Commuter Rail,NE03,FALSE,Fitchburg Line (MBTA Commuter Rail),,FALSE,Light (<15),FALSE,None,FALSE,Built,1952,https://en.wikipedia.org/wiki/Waverley_station_(MBTA),"<a href=""https://en.wikipedia.org/wiki/Waverley_station_(MBTA)"" target=""_blank"">Waverley</a>"
-71.236052,42.374208,1229,Waltham,"Waltham, MA",,FALSE,MBTA Commuter Rail,NE03,FALSE,Fitchburg Line (MBTA Commuter Rail),,FALSE,Medium (<35),FALSE,None,TRUE,Built,1843,https://en.wikipedia.org/wiki/Waltham_station,"<a href=""https://en.wikipedia.org/wiki/Waltham_station"" target=""_blank"">Waltham</a>"
-71.260295,42.361843,1230,Brandeis / Roberts,"Waltham, MA",,FALSE,MBTA Commuter Rail,NE03,FALSE,Fitchburg Line (MBTA Commuter Rail),,FALSE,Medium (<35),FALSE,None,TRUE,Built,1986,https://en.wikipedia.org/wiki/Brandeis/Roberts_station,"<a href=""https://en.wikipedia.org/wiki/Brandeis/Roberts_station"" target=""_blank"">Brandeis / Roberts</a>"
-71.282424,42.378988,1231,Kendal Green,"Weston, MA",,FALSE,MBTA Commuter Rail,NE03,FALSE,Fitchburg Line (MBTA Commuter Rail),,FALSE,Medium (<35),FALSE,None,FALSE,Built,,https://en.wikipedia.org/wiki/Kendal_Green_station,"<a href=""https://en.wikipedia.org/wiki/Kendal_Green_station"" target=""_blank"">Kendal Green</a>"
-71.289151,42.385752,1232,Hastings,"Weston, MA",,FALSE,MBTA Commuter Rail,NE03,FALSE,Fitchburg Line (MBTA Commuter Rail),,TRUE,Minimal (<5),FALSE,None,FALSE,Built,,https://en.wikipedia.org/wiki/Hastings_station_(MBTA),"<a href=""https://en.wikipedia.org/wiki/Hastings_station_(MBTA)"" target=""_blank"">Hastings</a>"
-71.302266,42.395676,1233,Silver Hill,"Weston, MA",,FALSE,MBTA Commuter Rail,NE03,FALSE,Fitchburg Line (MBTA Commuter Rail),,TRUE,Minimal (<5),FALSE,None,FALSE,Built,1844,https://en.wikipedia.org/wiki/Silver_Hill_station,"<a href=""https://en.wikipedia.org/wiki/Silver_Hill_station"" target=""_blank"">Silver Hill</a>"
-71.325597,42.413714,1234,Lincoln,"Lincoln, MA",,FALSE,MBTA Commuter Rail,NE03,FALSE,Fitchburg Line (MBTA Commuter Rail),,FALSE,Medium (<35),FALSE,None,FALSE,Built,1850,https://en.wikipedia.org/wiki/Lincoln_station_(MBTA),"<a href=""https://en.wikipedia.org/wiki/Lincoln_station_(MBTA)"" target=""_blank"">Lincoln</a>"
-71.357672,42.456611,1235,Concord,"Concord, MA",,FALSE,MBTA Commuter Rail,NE03,FALSE,Fitchburg Line (MBTA Commuter Rail),,FALSE,Medium (<35),FALSE,None,FALSE,Built,1895,https://en.wikipedia.org/wiki/Concord_station_(Massachusetts),"<a href=""https://en.wikipedia.org/wiki/Concord_station_(Massachusetts)"" target=""_blank"">Concord</a>"
-71.393084,42.456951,1236,West Concord,"Concord, MA",,FALSE,MBTA Commuter Rail,NE03,FALSE,Fitchburg Line (MBTA Commuter Rail),,FALSE,Medium (<35),FALSE,None,TRUE,Built,1894,https://en.wikipedia.org/wiki/West_Concord_station,"<a href=""https://en.wikipedia.org/wiki/West_Concord_station"" target=""_blank"">West Concord</a>"
-71.457642,42.460321,1237,South Acton,"Acton, MA",,FALSE,MBTA Commuter Rail,NE03,FALSE,Fitchburg Line (MBTA Commuter Rail),,FALSE,Medium (<35),FALSE,None,TRUE,Built,2015,https://en.wikipedia.org/wiki/South_Acton_station_(MBTA),"<a href=""https://en.wikipedia.org/wiki/South_Acton_station_(MBTA)"" target=""_blank"">South Acton</a>"
-71.502981,42.520356,1238,Littleton / Rte 495,"Littleton, MA",,FALSE,MBTA Commuter Rail,NE03,FALSE,Fitchburg Line (MBTA Commuter Rail),,FALSE,Medium (<35),TRUE,None,TRUE,Built,2013,https://en.wikipedia.org/wiki/Littleton/Route_495_station,"<a href=""https://en.wikipedia.org/wiki/Littleton/Route_495_station"" target=""_blank"">Littleton / Rte 495</a>"
-71.588526,42.559079,1239,Ayer,"Ayer, MA",,FALSE,MBTA Commuter Rail,NE03,FALSE,Fitchburg Line (MBTA Commuter Rail),,FALSE,Medium (<35),FALSE,None,FALSE,Built,1896,https://en.wikipedia.org/wiki/Ayer_station,"<a href=""https://en.wikipedia.org/wiki/Ayer_station"" target=""_blank"">Ayer</a>"
-71.648243,42.545131,1240,Shirley,"Shirley, MA",,FALSE,MBTA Commuter Rail,NE03,FALSE,Fitchburg Line (MBTA Commuter Rail),,FALSE,Medium (<35),FALSE,None,FALSE,Built,1981,https://en.wikipedia.org/wiki/Shirley_station_(MBTA),"<a href=""https://en.wikipedia.org/wiki/Shirley_station_(MBTA)"" target=""_blank"">Shirley</a>"
-71.739539,42.539598,1241,North Leominster,"Leominster, MA",,FALSE,MBTA Commuter Rail,NE03,FALSE,Fitchburg Line (MBTA Commuter Rail),,FALSE,Medium (<35),FALSE,None,TRUE,Built,2004,https://en.wikipedia.org/wiki/North_Leominster_station,"<a href=""https://en.wikipedia.org/wiki/North_Leominster_station"" target=""_blank"">North Leominster</a>"
-71.792634,42.580649,1242,Fitchburg Intermodal Transportation Center,"Fitchburg, MA",,FALSE,MBTA Commuter Rail,NE03,FALSE,Fitchburg Line (MBTA Commuter Rail),,FALSE,Medium (<35),FALSE,None,TRUE,Built,2000,https://en.wikipedia.org/wiki/Fitchburg_Intermodal_Transportation_Center,"<a href=""https://en.wikipedia.org/wiki/Fitchburg_Intermodal_Transportation_Center"" target=""_blank"">Fitchburg Intermodal Transportation Center</a>"
-71.849137,42.553502,1243,Wachusett,"Fitchburg, MA",,FALSE,MBTA Commuter Rail,NE03,FALSE,Fitchburg Line (MBTA Commuter Rail),,FALSE,Medium (<35),TRUE,None,TRUE,Built,2016,https://en.wikipedia.org/wiki/Wachusett_station,"<a href=""https://en.wikipedia.org/wiki/Wachusett_station"" target=""_blank"">Wachusett</a>"
-71.133422,42.4217,1244,West Medford,"Medford, MA",,FALSE,MBTA Commuter Rail,NE03,TRUE,"Haverhill Line (MBTA Commuter Rail), Lowell Line (MBTA Commuter Rail)",Wildcat Branch (Haverhill Line),"Lowell Line - False, Haverhill Line (Wildcat Branch) - True","Lowell Line - Medium (<35), Haverhill Line (Wildcat Branch) - Minimal (<5)",FALSE,None,FALSE,Built,1880,https://en.wikipedia.org/wiki/West_Medford_station,"<a href=""https://en.wikipedia.org/wiki/West_Medford_station"" target=""_blank"">West Medford</a>"
-71.140476,42.444475,1245,Wedgemere,"Winchester, MA",,FALSE,MBTA Commuter Rail,NE03,TRUE,"Haverhill Line (MBTA Commuter Rail), Lowell Line (MBTA Commuter Rail)",Wildcat Branch (Haverhill Line),"Lowell Line - False, Haverhill Line (Wildcat Branch) - True","Lowell Line - Medium (<35), Haverhill Line (Wildcat Branch) - Minimal (<5)",FALSE,None,TRUE,Built,1957,https://en.wikipedia.org/wiki/Wedgemere_station,"<a href=""https://en.wikipedia.org/wiki/Wedgemere_station"" target=""_blank"">Wedgemere</a>"
-71.137626,42.452047,1246,Winchester Center,"Winchester, MA",,FALSE,MBTA Commuter Rail,NE03,TRUE,"Haverhill Line (MBTA Commuter Rail), Lowell Line (MBTA Commuter Rail)",Wildcat Branch (Haverhill Line),"Lowell Line - False, Haverhill Line (Wildcat Branch) - True","Lowell Line - Medium (<35), Haverhill Line (Wildcat Branch) - Minimal (<5)",FALSE,None,FALSE,Built,1957,https://en.wikipedia.org/wiki/Winchester_Center_station,"<a href=""https://en.wikipedia.org/wiki/Winchester_Center_station"" target=""_blank"">Winchester Center</a>"
-71.137131,42.502983,1247,Mishawum,"Woburn, MA",,FALSE,MBTA Commuter Rail,NE03,FALSE,Lowell Line (MBTA Commuter Rail),,TRUE,Minimal (<5),FALSE,None,FALSE,Built,1984,https://en.wikipedia.org/wiki/Mishawum_station,"<a href=""https://en.wikipedia.org/wiki/Mishawum_station"" target=""_blank"">Mishawum</a>"
-71.144772,42.517223,1248,Anderson / Woburn (Anderson RTC),"Woburn, MA",,FALSE,"Amtrak, MBTA Commuter Rail","NE01, NE03",TRUE,"Downeaster (Amtrak), Haverhill Line (MBTA Commuter Rail), Lowell Line (MBTA Commuter Rail)",Wildcat Branch (Haverhill Line),"Downeaster - True, Lowell Line - False, Haverhill Line (Wildcat Branch) - True","Downeaster - Light (<15), Lowell Line - Medium (<35), Haverhill Line (Wildcat Branch) - Minimal (<5)",FALSE,None,TRUE,Built,2001,https://en.wikipedia.org/wiki/Anderson_Regional_Transportation_Center,"<a href=""https://en.wikipedia.org/wiki/Anderson_Regional_Transportation_Center"" target=""_blank"">Anderson / Woburn (Anderson RTC)</a>"
-71.174529,42.546723,1249,Wilmington,"Wilmington, MA",,FALSE,MBTA Commuter Rail,NE03,TRUE,"Haverhill Line (MBTA Commuter Rail), Lowell Line (MBTA Commuter Rail)",Wildcat Branch (Haverhill Line),"Lowell Line - False, Haverhill Line (Wildcat Branch) - True","Lowell Line - Medium (<35), Haverhill Line (Wildcat Branch) - Minimal (<5)",FALSE,None,TRUE,Built,2003,https://en.wikipedia.org/wiki/Wilmington_station_(MBTA),"<a href=""https://en.wikipedia.org/wiki/Wilmington_station_(MBTA)"" target=""_blank"">Wilmington</a>"
-71.281117,42.59324,1250,North Billerica,"North Billerica, MA",,FALSE,MBTA Commuter Rail,NE03,FALSE,Lowell Line (MBTA Commuter Rail),,FALSE,Medium (<35),FALSE,None,TRUE,Built,1998,https://en.wikipedia.org/wiki/North_Billerica_station,"<a href=""https://en.wikipedia.org/wiki/North_Billerica_station"" target=""_blank"">North Billerica</a>"
-71.314992,42.636336,1251,Lowell,"Lowell, MA",,FALSE,MBTA Commuter Rail,NE03,FALSE,Lowell Line (MBTA Commuter Rail),,FALSE,Medium (<35),TRUE,None,TRUE,Built,1983,https://en.wikipedia.org/wiki/Lowell_station,"<a href=""https://en.wikipedia.org/wiki/Lowell_station"" target=""_blank"">Lowell</a>"
-71.06942,42.4517,1252,Wyoming Hill,"Melrose, MA",,FALSE,MBTA Commuter Rail,NE03,FALSE,Haverhill Line (MBTA Commuter Rail),Main Line (Haverhill Line),FALSE,Medium (<35),FALSE,None,FALSE,Built,,https://en.wikipedia.org/wiki/Wyoming_Hill_station,"<a href=""https://en.wikipedia.org/wiki/Wyoming_Hill_station"" target=""_blank"">Wyoming Hill</a>"
-71.069802,42.458769,1253,Melrose / Cedar Park,"Melrose, MA",,FALSE,MBTA Commuter Rail,NE03,FALSE,Haverhill Line (MBTA Commuter Rail),Main Line (Haverhill Line),FALSE,Medium (<35),FALSE,None,FALSE,Built,,https://en.wikipedia.org/wiki/Melrose/Cedar_Park_station,"<a href=""https://en.wikipedia.org/wiki/Melrose/Cedar_Park_station"" target=""_blank"">Melrose / Cedar Park</a>"
-71.068361,42.469458,1254,Melrose Highlands,"Melrose, MA",,FALSE,MBTA Commuter Rail,NE03,FALSE,Haverhill Line (MBTA Commuter Rail),Main Line (Haverhill Line),FALSE,Medium (<35),FALSE,None,TRUE,Built,1903,https://en.wikipedia.org/wiki/Melrose_Highlands_station,"<a href=""https://en.wikipedia.org/wiki/Melrose_Highlands_station"" target=""_blank"">Melrose Highlands</a>"
-71.067319,42.482974,1255,Greenwood,"Wakefield, MA",,FALSE,MBTA Commuter Rail,NE03,FALSE,Haverhill Line (MBTA Commuter Rail),Main Line (Haverhill Line),FALSE,Medium (<35),FALSE,None,FALSE,Built,,https://en.wikipedia.org/wiki/Greenwood_station_(MBTA),"<a href=""https://en.wikipedia.org/wiki/Greenwood_station_(MBTA)"" target=""_blank"">Greenwood</a>"
-71.075561,42.502213,1256,Wakefield,"Wakefield, MA",,FALSE,MBTA Commuter Rail,NE03,FALSE,Haverhill Line (MBTA Commuter Rail),Main Line (Haverhill Line),FALSE,Medium (<35),FALSE,None,FALSE,Built,1889,https://en.wikipedia.org/wiki/Wakefield_station_(MBTA),"<a href=""https://en.wikipedia.org/wiki/Wakefield_station_(MBTA)"" target=""_blank"">Wakefield</a>"
-71.107264,42.521773,1257,Reading,"Reading, MA",,FALSE,MBTA Commuter Rail,NE03,FALSE,Haverhill Line (MBTA Commuter Rail),Main Line (Haverhill Line),FALSE,Medium (<35),TRUE,None,TRUE,Built,1870,https://en.wikipedia.org/wiki/Reading_station_(MBTA),"<a href=""https://en.wikipedia.org/wiki/Reading_station_(MBTA)"" target=""_blank"">Reading</a>"
-71.15963,42.569528,1258,North Wilmington,"Wilmington, MA",,FALSE,MBTA Commuter Rail,NE03,FALSE,Haverhill Line (MBTA Commuter Rail),Main Line (Haverhill Line),FALSE,Light (<15),FALSE,None,FALSE,Built,1979,https://en.wikipedia.org/wiki/North_Wilmington_station,"<a href=""https://en.wikipedia.org/wiki/North_Wilmington_station"" target=""_blank"">North Wilmington</a>"
-71.159858,42.627348,1259,Ballardvale,"Andover, MA",,FALSE,MBTA Commuter Rail,NE03,FALSE,Haverhill Line (MBTA Commuter Rail),"Main Line (Haverhill Line), Wildcat Branch (Haverhill Line)","Haverhill Line (Main Line) - False, Haverhill Line (Wildcat Branch) - True","Haverhill Line (Main Line) - Light (<15), Haverhill Line (Wildcat Branch) - Minimal (<5)",FALSE,None,TRUE,Built,1849,https://en.wikipedia.org/wiki/Ballardvale_station,"<a href=""https://en.wikipedia.org/wiki/Ballardvale_station"" target=""_blank"">Ballardvale</a>"
-71.144493,42.658131,1260,Andover,"Andover, MA",,FALSE,MBTA Commuter Rail,NE03,FALSE,Haverhill Line (MBTA Commuter Rail),"Main Line (Haverhill Line), Wildcat Branch (Haverhill Line)","Haverhill Line (Main Line) - False, Haverhill Line (Wildcat Branch) - True","Haverhill Line (Main Line) - Light (<15), Haverhill Line (Wildcat Branch) - Minimal (<5)",FALSE,None,TRUE,Built,1907,https://en.wikipedia.org/wiki/Andover_station_(MBTA),"<a href=""https://en.wikipedia.org/wiki/Andover_station_(MBTA)"" target=""_blank"">Andover</a>"
-71.152263,42.701692,1261,Lawrence,"Lawrence, MA",,FALSE,MBTA Commuter Rail,NE03,FALSE,Haverhill Line (MBTA Commuter Rail),"Main Line (Haverhill Line), Wildcat Branch (Haverhill Line)","Haverhill Line (Main Line) - False, Haverhill Line (Wildcat Branch) - True","Haverhill Line (Main Line) - Light (<15), Haverhill Line (Wildcat Branch) - Minimal (<5)",FALSE,None,TRUE,Built,2005,https://en.wikipedia.org/wiki/McGovern_Transportation_Center,"<a href=""https://en.wikipedia.org/wiki/McGovern_Transportation_Center"" target=""_blank"">Lawrence</a>"
-71.088512,42.766611,1262,Bradford,"Bradford, MA",,FALSE,MBTA Commuter Rail,NE03,FALSE,Haverhill Line (MBTA Commuter Rail),"Main Line (Haverhill Line), Wildcat Branch (Haverhill Line)","Haverhill Line (Main Line) - False, Haverhill Line (Wildcat Branch) - True","Haverhill Line (Main Line) - Light (<15), Haverhill Line (Wildcat Branch) - Minimal (<5)",FALSE,None,TRUE,Built,,https://en.wikipedia.org/wiki/Bradford_station,"<a href=""https://en.wikipedia.org/wiki/Bradford_station"" target=""_blank"">Bradford</a>"
-71.086131,42.773498,1263,Haverhill,"Haverhill, MA",,TRUE,"Amtrak, MBTA Commuter Rail","NE01, NE03",FALSE,"Downeaster (Amtrak), Haverhill Line (MBTA Commuter Rail)","Main Line (Haverhill Line), Wildcat Branch (Haverhill Line)","Downeaster - True, Haverhill Line (Main Line) - False, Haverhill Line (Wildcat Branch) - True","Downeaster - Light (<15), Haverhill Line (Main Line) - Light (<15), Haverhill Line (Wildcat Branch) - Minimal (<5)",TRUE,None,TRUE,Built,1998,https://en.wikipedia.org/wiki/Haverhill_station_(Massachusetts),"<a href=""https://en.wikipedia.org/wiki/Haverhill_station_(Massachusetts)"" target=""_blank"">Haverhill</a>"
-71.034296,42.395619,1264,Chelsea / Bellingham Sq,"Chelsea, MA",,FALSE,MBTA Commuter Rail,NE03,FALSE,Newburyport/Rockport Line (MBTA Commuter Rail),"Newburyport Branch (Newburyport/Rockport Line), Rockport Branch (Newburyport/Rockport Line)","Newburyport/Rockport Line (Newburyport Branch) - False, Newburyport/Rockport Line (Rockport Branch) - False","Newburyport/Rockport Line (Newburyport Branch) - Light (<15), Newburyport/Rockport Line (Rockport Branch) - Light (<15)",FALSE,None,FALSE,Built,1985,https://en.wikipedia.org/wiki/Bellingham_Square_station,"<a href=""https://en.wikipedia.org/wiki/Bellingham_Square_station"" target=""_blank"">Chelsea / Bellingham Sq</a>"
-70.969698,42.449904,1265,River Works (Planned),"Lynn, MA",,FALSE,MBTA Commuter Rail,NE03,FALSE,Newburyport/Rockport Line (MBTA Commuter Rail),"Newburyport Branch (Newburyport/Rockport Line), Rockport Branch (Newburyport/Rockport Line)","Newburyport/Rockport Line (Newburyport Branch) - False, Newburyport/Rockport Line (Rockport Branch) - False","Newburyport/Rockport Line (Newburyport Branch) - Light (<15), Newburyport/Rockport Line (Rockport Branch) - Light (<15)",FALSE,None,FALSE,Built,1965,https://en.wikipedia.org/wiki/River_Works_station,"<a href=""https://en.wikipedia.org/wiki/River_Works_station"" target=""_blank"">River Works (Planned)</a>"
-70.945442,42.462972,1266,Lynn,"Lynn, MA",,FALSE,MBTA Commuter Rail,NE03,FALSE,Newburyport/Rockport Line (MBTA Commuter Rail),"Newburyport Branch (Newburyport/Rockport Line), Rockport Branch (Newburyport/Rockport Line)","Newburyport/Rockport Line (Newburyport Branch) - False, Newburyport/Rockport Line (Rockport Branch) - False","Newburyport/Rockport Line (Newburyport Branch) - Light (<15), Newburyport/Rockport Line (Rockport Branch) - Light (<15)",FALSE,None,TRUE,Built,1992,https://en.wikipedia.org/wiki/Lynn_station,"<a href=""https://en.wikipedia.org/wiki/Lynn_station"" target=""_blank"">Lynn</a>"
-70.922502,42.473745,1267,Swampscott,"Swampscott, MA",,FALSE,MBTA Commuter Rail,NE03,FALSE,Newburyport/Rockport Line (MBTA Commuter Rail),"Newburyport Branch (Newburyport/Rockport Line), Rockport Branch (Newburyport/Rockport Line)","Newburyport/Rockport Line (Newburyport Branch) - False, Newburyport/Rockport Line (Rockport Branch) - False","Newburyport/Rockport Line (Newburyport Branch) - Light (<15), Newburyport/Rockport Line (Rockport Branch) - Light (<15)",FALSE,None,TRUE,Built,1868,https://en.wikipedia.org/wiki/Swampscott_station,"<a href=""https://en.wikipedia.org/wiki/Swampscott_station"" target=""_blank"">Swampscott</a>"
-70.895848,42.524482,1268,Salem,"Salem, MA",,FALSE,MBTA Commuter Rail,NE03,FALSE,Newburyport/Rockport Line (MBTA Commuter Rail),"Newburyport Branch (Newburyport/Rockport Line), Rockport Branch (Newburyport/Rockport Line)","Newburyport/Rockport Line (Newburyport Branch) - False, Newburyport/Rockport Line (Rockport Branch) - False","Newburyport/Rockport Line (Newburyport Branch) - Medium (<35), Newburyport/Rockport Line (Rockport Branch) - Medium (<35)",FALSE,None,TRUE,Built,2014,https://en.wikipedia.org/wiki/Salem_station,"<a href=""https://en.wikipedia.org/wiki/Salem_station"" target=""_blank"">Salem</a>"
-70.885445,42.547326,1269,Beverly,"Beverly, MA",,FALSE,MBTA Commuter Rail,NE03,FALSE,Newburyport/Rockport Line (MBTA Commuter Rail),"Newburyport Branch (Newburyport/Rockport Line), Rockport Branch (Newburyport/Rockport Line)","Newburyport/Rockport Line (Newburyport Branch) - False, Newburyport/Rockport Line (Rockport Branch) - False","Newburyport/Rockport Line (Newburyport Branch) - Medium (<35), Newburyport/Rockport Line (Rockport Branch) - Medium (<35)",TRUE,None,TRUE,Built,1897,https://en.wikipedia.org/wiki/Beverly_Depot,"<a href=""https://en.wikipedia.org/wiki/Beverly_Depot"" target=""_blank"">Beverly</a>"
-70.883764,42.583845,1270,North Beverly,"Beverly, MA",,FALSE,MBTA Commuter Rail,NE03,FALSE,Newburyport/Rockport Line (MBTA Commuter Rail),Newburyport Branch (Newburyport/Rockport Line),FALSE,Medium (<35),FALSE,None,TRUE,Built,,https://en.wikipedia.org/wiki/North_Beverly_station,"<a href=""https://en.wikipedia.org/wiki/North_Beverly_station"" target=""_blank"">North Beverly</a>"
-70.874647,42.609592,1271,Hamilton / Wenham,"Hamilton, MA",,FALSE,MBTA Commuter Rail,NE03,FALSE,Newburyport/Rockport Line (MBTA Commuter Rail),Newburyport Branch (Newburyport/Rockport Line),FALSE,Medium (<35),FALSE,None,TRUE,Built,2002,https://en.wikipedia.org/wiki/Hamilton/Wenham_station,"<a href=""https://en.wikipedia.org/wiki/Hamilton/Wenham_station"" target=""_blank"">Hamilton / Wenham</a>"
-70.840617,42.676985,1272,Ipswich,"Ipswich, MA",,FALSE,MBTA Commuter Rail,NE03,FALSE,Newburyport/Rockport Line (MBTA Commuter Rail),Newburyport Branch (Newburyport/Rockport Line),FALSE,Medium (<35),FALSE,None,TRUE,Built,,https://en.wikipedia.org/wiki/Ipswich_station_(MBTA),"<a href=""https://en.wikipedia.org/wiki/Ipswich_station_(MBTA)"" target=""_blank"">Ipswich</a>"
-70.859132,42.727124,1273,Rowley,"Rowley, MA",,FALSE,MBTA Commuter Rail,NE03,FALSE,Newburyport/Rockport Line (MBTA Commuter Rail),Newburyport Branch (Newburyport/Rockport Line),FALSE,Medium (<35),FALSE,None,TRUE,Built,1998,https://en.wikipedia.org/wiki/Rowley_station_(MBTA),"<a href=""https://en.wikipedia.org/wiki/Rowley_station_(MBTA)"" target=""_blank"">Rowley</a>"
-70.877635,42.797124,1274,Newburyport,"Newburyport, MA",,FALSE,MBTA Commuter Rail,NE03,FALSE,Newburyport/Rockport Line (MBTA Commuter Rail),Newburyport Branch (Newburyport/Rockport Line),FALSE,Medium (<35),TRUE,None,TRUE,Built,1998,https://en.wikipedia.org/wiki/Newburyport_station,"<a href=""https://en.wikipedia.org/wiki/Newburyport_station"" target=""_blank"">Newburyport</a>"
-70.869086,42.562243,1275,Montserrat,"Beverly, MA",,FALSE,MBTA Commuter Rail,NE03,FALSE,Newburyport/Rockport Line (MBTA Commuter Rail),Rockport Branch (Newburyport/Rockport Line),FALSE,Medium (<35),FALSE,None,TRUE,Built,,https://en.wikipedia.org/wiki/Montserrat_station,"<a href=""https://en.wikipedia.org/wiki/Montserrat_station"" target=""_blank"">Montserrat</a>"
-70.825258,42.559507,1276,Prides Crossing,"Beverly, MA",,FALSE,MBTA Commuter Rail,NE03,FALSE,Newburyport/Rockport Line (MBTA Commuter Rail),Rockport Branch (Newburyport/Rockport Line),TRUE,Minimal (<5),FALSE,None,FALSE,Built,1879,https://en.wikipedia.org/wiki/Prides_Crossing_station,"<a href=""https://en.wikipedia.org/wiki/Prides_Crossing_station"" target=""_blank"">Prides Crossing</a>"
-70.810826,42.561752,1277,Beverly Farms,"Beverly, MA",,FALSE,MBTA Commuter Rail,NE03,FALSE,Newburyport/Rockport Line (MBTA Commuter Rail),Rockport Branch (Newburyport/Rockport Line),FALSE,Medium (<35),FALSE,None,TRUE,Built,1898,https://en.wikipedia.org/wiki/Beverly_Farms_station,"<a href=""https://en.wikipedia.org/wiki/Beverly_Farms_station"" target=""_blank"">Beverly Farms</a>"
-70.767409,42.574488,1278,Manchester,"Manchester-by-the-Sea, MA",,FALSE,MBTA Commuter Rail,NE03,FALSE,Newburyport/Rockport Line (MBTA Commuter Rail),Rockport Branch (Newburyport/Rockport Line),FALSE,Medium (<35),FALSE,None,TRUE,Built,1895,https://en.wikipedia.org/wiki/Manchester_station_(MBTA),"<a href=""https://en.wikipedia.org/wiki/Manchester_station_(MBTA)"" target=""_blank"">Manchester</a>"
-70.705277,42.612018,1279,West Gloucester,"Gloucester, MA",,FALSE,MBTA Commuter Rail,NE03,FALSE,Newburyport/Rockport Line (MBTA Commuter Rail),Rockport Branch (Newburyport/Rockport Line),FALSE,Medium (<35),FALSE,None,TRUE,Built,1884,https://en.wikipedia.org/wiki/West_Gloucester_station,"<a href=""https://en.wikipedia.org/wiki/West_Gloucester_station"" target=""_blank"">West Gloucester</a>"
